Latitude,Longitude,Timestamp,temp,name
69.04277,20.85091,2023-12-31 18:00:00,-16.5,Enontekiö Kilpisjärvi Saana
64.11197,28.33639,2023-12-30 00:00:00,-12.4,Sotkamo Kuolaniemi
64.11197,28.33639,2023-12-30 15:00:00,-10.5,Sotkamo Kuolaniemi
70.08203,27.8965,2023-12-30 11:00:00,-25.3,Utsjoki Nuorgam
59.95911,19.95374,2023-12-31 03:00:00,-3.1,Lemland Nyhamn
66.1716,29.13646,2023-12-28 13:00:00,-13.1,Kuusamo Ruka Talvijärvi
60.30373,25.54916,2023-12-31 10:00:00,-13.6,Porvoo Kilpilahti satama
63.08898,24.26084,2023-12-30 08:00:00,-9.8,Alajärvi Möksy
68.08422,27.18501,2023-12-31 11:00:00,-17.8,Sodankylä Vuotso
60.51565,22.27916,2023-12-28 13:00:00,-2.0,Turku lentoasema
67.97328,24.11559,2023-12-31 13:00:00,-11.3,Muonio Sammaltunturi
67.82147,27.74597,2023-12-29 20:00:00,-15.9,Sodankylä Lokka
61.84591,24.28696,2024-01-01 00:00:00,-22.0,Juupajoki Hyytiälä
69.757,27.012,2023-12-31 13:00:00,-26.3,Utsjoki Kevo Kevojärvi
61.70448,25.50529,2024-01-01 06:00:00,-19.0,Luhanka Judinsalo
63.08898,24.26084,2023-12-31 18:00:00,-22.5,Alajärvi Möksy
62.18329,22.79983,2023-12-31 06:00:00,-20.6,Karvia Alkkia
62.18329,22.79983,2023-12-29 04:00:00,-4.4,Karvia Alkkia
64.61178,23.89674,2023-12-30 01:00:00,-9.4,Raahe Nahkiainen
64.93125,28.74672,2024-01-01 06:00:00,-20.6,Suomussalmi Pesiö
61.14475,21.30273,2023-12-31 15:00:00,-12.6,Rauma Kylmäpihlaja
61.83864,22.46368,2023-12-31 03:00:00,-15.9,Kankaanpää Niinisalo lentokenttä
64.93125,28.74672,2024-01-01 08:00:00,-25.9,Suomussalmi Pesiö
68.3614,23.42755,2023-12-28 17:00:00,-19.9,Enontekiö lentoasema
63.08225,25.85862,2023-12-31 01:00:00,-17.4,Viitasaari Haapaniemi
69.5825,28.89409,2023-12-30 09:00:00,-25.5,Inari Kirakkajärvi
59.95911,19.95374,2023-12-29 16:00:00,1.5,Lemland Nyhamn
66.8166,28.68829,2023-12-28 12:00:00,-13.7,Salla kirkonkylä
61.46561,23.74678,2023-12-28 20:00:00,-3.9,Tampere Härmälä
66.32027,29.39967,2023-12-31 11:00:00,-14.2,Kuusamo Juuma
61.94638,28.93238,2023-12-31 17:00:00,-12.5,Savonlinna lentoasema
62.55461,24.14239,2023-12-29 08:00:00,-4.8,Ähtäri Inha
66.52952,24.6496,2023-12-28 15:00:00,-19.7,Ylitornio Meltosjärvi
67.95828,23.68438,2023-12-28 19:00:00,-21.2,Muonio Oustajärvi
63.12033,23.04364,2023-12-30 04:00:00,-12.9,Kauhava lentokenttä
61.46011,21.80839,2023-12-31 14:00:00,-15.2,Pori lentoasema
65.99763,29.22268,2023-12-31 12:00:00,-11.9,Kuusamo Välikangas
63.72655,23.14359,2023-12-28 18:00:00,-4.7,Kruunupyy Kokkola-Pietarsaari lentoasema
63.6673,28.82927,2023-12-31 20:00:00,-15.5,Nurmes Valtimo
62.51044,24.80764,2024-01-01 09:00:00,-21.0,Multia Karhila
61.83864,22.46368,2023-12-30 03:00:00,-5.3,Kankaanpää Niinisalo lentokenttä
59.94898,24.92631,2023-12-28 13:00:00,0.4,Helsinki Helsingin majakka
59.91982,24.35023,2023-12-30 06:00:00,0.1,Kirkkonummi Mäkiluoto
61.44467,29.46108,2023-12-29 13:00:00,-6.3,Parikkala Koitsanlahti
68.43399,27.44515,2023-12-28 20:00:00,-12.8,Inari Saariselkä Kaunispää
67.66924,24.92927,2023-12-29 19:00:00,-11.9,Kittilä Pakatti
65.67319,24.5152,2023-12-31 09:00:00,-13.8,Kemi Ajos
62.23539,30.34662,2023-12-28 18:00:00,-7.8,Tohmajärvi Kemie
60.10512,24.97539,2024-01-01 02:00:00,-11.7,Helsinki Harmaja
65.78944,24.58278,2023-12-31 04:00:00,-14.4,Kemi Kemi-Tornio lentoasema
62.89256,27.63331,2024-01-01 09:00:00,-20.4,Kuopio Savilahti
61.44467,29.46108,2023-12-29 22:00:00,-6.1,Parikkala Koitsanlahti
60.37788,22.0964,2023-12-28 12:00:00,-0.5,Turku Rajakari
65.99334,29.22715,2023-12-31 11:00:00,-11.7,Kuusamo lentoasema
68.478,28.30123,2023-12-29 00:00:00,-10.7,Inari Raja-Jooseppi
64.61178,23.89674,2023-12-30 20:00:00,-7.3,Raahe Nahkiainen
64.11197,28.33639,2023-12-29 23:00:00,-12.4,Sotkamo Kuolaniemi
60.24446,24.04951,2023-12-30 16:00:00,-5.0,Lohja Porla
61.11454,24.32449,2023-12-31 22:00:00,-18.9,Hattula Lepaa
60.59589,24.80297,2023-12-28 16:00:00,-4.2,Hyvinkää Hyvinkäänkylä
60.81397,23.49825,2024-01-01 08:00:00,-19.5,Jokioinen Ilmala
61.20008,26.04967,2024-01-01 02:00:00,-18.6,Heinola Asemantaus
62.97839,20.74008,2023-12-30 12:00:00,-8.4,Maalahti Strömmingsbådan
60.62773,25.19342,2023-12-31 11:00:00,-15.1,Mäntsälä Hirvihaara
64.21678,27.75194,2023-12-30 19:00:00,-10.6,Kajaani Petäisenniska
60.17797,24.78743,2023-12-29 07:00:00,0.5,Espoo Tapiola
66.56236,25.83814,2023-12-30 02:00:00,-12.6,Rovaniemi lentoasema
60.5272,27.67274,2023-12-28 19:00:00,-3.7,Virolahti Koivuniemi
68.3614,23.42755,2023-12-28 20:00:00,-18.2,Enontekiö lentoasema
60.37788,22.0964,2023-12-31 15:00:00,-12.5,Turku Rajakari
61.94638,28.93238,2023-12-31 12:00:00,-11.7,Savonlinna lentoasema
68.06284,24.03335,2023-12-30 20:00:00,-13.3,Muonio Laukukero
62.65695,29.63608,2023-12-31 06:00:00,-13.8,Liperi Joensuu lentoasema
64.11197,28.33639,2023-12-29 04:00:00,-8.3,Sotkamo Kuolaniemi
61.51757,23.75388,2023-12-30 04:00:00,-5.5,Tampere Siilinkari
59.91982,24.35023,2023-12-30 18:00:00,-4.2,Kirkkonummi Mäkiluoto
69.03905,20.81379,2023-12-30 06:00:00,-18.8,Enontekiö Kilpisjärvi kyläkeskus
63.72655,23.14359,2023-12-30 21:00:00,-16.5,Kruunupyy Kokkola-Pietarsaari lentoasema
60.09136,19.9291,2023-12-30 18:00:00,-2.6,Maarianhamina Länsisatama
64.11197,28.33639,2023-12-29 15:00:00,-11.8,Sotkamo Kuolaniemi
60.11584,20.29765,2023-12-30 14:00:00,-1.9,Lumparland Långnäs satama
62.39332,25.68862,2023-12-31 16:00:00,-16.7,Jyväskylä lentoasema AWOS
63.83882,23.09715,2023-12-29 04:00:00,-6.0,Kokkola Santahaka
64.61178,23.89674,2023-12-29 08:00:00,-5.3,Raahe Nahkiainen
68.16961,25.78316,2023-12-29 09:00:00,-11.4,Kittilä Pokka
60.20382,25.62546,2023-12-31 09:00:00,-13.8,Porvoo Emäsalo
62.41345,22.18372,2023-12-30 21:00:00,-14.3,Kauhajoki Kuja-Kokko
63.32108,30.04578,2023-12-31 06:00:00,-9.4,Lieksa Lampela
60.17797,24.78743,2023-12-29 08:00:00,0.6,Espoo Tapiola
65.99334,29.22715,2023-12-29 20:00:00,-12.4,Kuusamo lentoasema
68.08422,27.18501,2023-12-29 21:00:00,-14.8,Sodankylä Vuotso
60.45439,22.1787,2023-12-29 08:00:00,0.0,Turku Artukainen
60.3869,22.55183,2023-12-31 18:00:00,-17.0,Kaarina Yltöinen
70.08203,27.8965,2024-01-01 07:00:00,-14.9,Utsjoki Nuorgam
62.99842,27.80817,2023-12-29 08:00:00,-14.0,Siilinjärvi Kuopio lentoasema
65.97717,26.36757,2023-12-30 12:00:00,-11.0,Ranua lentokenttä
63.32108,30.04578,2024-01-01 09:00:00,-24.9,Lieksa Lampela
60.9992,24.49163,2023-12-29 19:00:00,-3.4,Hämeenlinna Katinen
64.2976,30.17061,2023-12-29 04:00:00,-8.3,Kuhmo Kalliojoki
67.99996,24.24016,2023-12-30 20:00:00,-16.8,Kittilä Matorova
63.6673,28.82927,2023-12-31 01:00:00,-17.5,Nurmes Valtimo
62.93808,22.48878,2024-01-01 02:00:00,-24.5,Seinäjoki Pelmaa
60.25299,25.04549,2023-12-31 14:00:00,-14.9,Helsinki Malmi lentokenttä
60.62773,25.19342,2023-12-28 12:00:00,-3.5,Mäntsälä Hirvihaara
60.20867,25.1959,2023-12-30 02:00:00,-1.4,Helsinki Vuosaari satama
60.25299,25.04549,2023-12-29 06:00:00,0.5,Helsinki Malmi lentokenttä
60.20867,25.1959,2024-01-01 03:00:00,-14.0,Helsinki Vuosaari satama
60.32937,24.97274,2024-01-01 04:00:00,-16.1,Vantaa Helsinki-Vantaan lentoasema
61.44467,29.46108,2023-12-30 15:00:00,-12.9,Parikkala Koitsanlahti
60.89839,26.94882,2023-12-29 16:00:00,-3.8,Kouvola Utti lentoasema
60.48595,26.59209,2023-12-31 17:00:00,-14.4,Pyhtää lentokenttä
65.97717,26.36757,2023-12-30 20:00:00,-17.3,Ranua lentokenttä
66.1716,29.13646,2023-12-29 11:00:00,-10.2,Kuusamo Ruka Talvijärvi
60.20307,24.96131,2023-12-28 22:00:00,-0.3,Helsinki Kumpula
67.69168,24.85538,2023-12-28 22:00:00,-15.8,Kittilä lentoasema
60.89839,26.94882,2023-12-31 11:00:00,-15.3,Kouvola Utti lentoasema
63.08225,25.85862,2023-12-30 10:00:00,-13.3,Viitasaari Haapaniemi
65.38508,24.09568,2023-12-30 14:00:00,-7.9,Kemi I majakka
68.61336,27.4189,2023-12-31 15:00:00,-17.5,Inari Ivalo lentoasema
64.66404,28.05673,2023-12-29 17:00:00,-11.5,Puolanka Paljakka
63.37806,28.66166,2023-12-30 17:00:00,-10.6,Rautavaara Ylä-Luosta
66.57283,25.84865,2023-12-30 02:00:00,-12.4,Rovaniemi lentoasema AWOS
64.66589,24.40695,2023-12-28 21:00:00,-4.8,Raahe Lapaluoto satama
68.478,28.30123,2023-12-31 07:00:00,-15.8,Inari Raja-Jooseppi
61.46561,23.74678,2023-12-31 00:00:00,-14.8,Tampere Härmälä
60.24446,24.04951,2024-01-01 05:00:00,-19.1,Lohja Porla
60.25299,25.04549,2023-12-29 16:00:00,0.1,Helsinki Malmi lentokenttä
68.478,28.30123,2024-01-01 10:00:00,-13.8,Inari Raja-Jooseppi
67.95828,23.68438,2023-12-31 13:00:00,-21.7,Muonio Oustajärvi
69.04277,20.85091,2023-12-29 17:00:00,-12.9,Enontekiö Kilpisjärvi Saana
65.40014,26.96311,2023-12-29 17:00:00,-10.6,Pudasjärvi lentokenttä
61.6886,27.20219,2023-12-30 16:00:00,-12.3,Mikkeli lentoasema
62.32783,23.54228,2023-12-29 17:00:00,-4.7,Virrat Äijänneva
66.56236,25.83814,2024-01-01 05:00:00,-21.8,Rovaniemi lentoasema
60.48595,26.59209,2023-12-31 21:00:00,-15.3,Pyhtää lentokenttä
60.88909,26.92929,2023-12-30 12:00:00,-6.7,Kouvola Utti Lentoportintie
62.32783,23.54228,2023-12-28 15:00:00,-5.1,Virrat Äijänneva
69.04277,20.85091,2023-12-30 21:00:00,-16.4,Enontekiö Kilpisjärvi Saana
67.66924,24.92927,2023-12-29 12:00:00,-11.8,Kittilä Pakatti
65.38508,24.09568,2024-01-01 05:00:00,-15.3,Kemi I majakka
60.41875,24.39862,2023-12-31 00:00:00,-12.1,Vihti Maasoja
66.52952,24.6496,2023-12-31 14:00:00,-22.1,Ylitornio Meltosjärvi
62.18329,22.79983,2023-12-28 15:00:00,-5.3,Karvia Alkkia
68.61336,27.4189,2023-12-29 11:00:00,-11.6,Inari Ivalo lentoasema
61.46011,21.80839,2023-12-31 10:00:00,-15.6,Pori lentoasema
68.06284,24.03335,2023-12-29 11:00:00,-10.9,Muonio Laukukero
61.94638,28.93238,2023-12-28 20:00:00,-6.4,Savonlinna lentoasema
69.14089,27.26567,2024-01-01 10:00:00,-23.5,Inari Kaamanen
66.8166,28.68829,2023-12-30 22:00:00,-16.9,Salla kirkonkylä
60.17797,24.78743,2023-12-31 18:00:00,-14.7,Espoo Tapiola
63.43508,21.06856,2023-12-31 15:00:00,-4.9,Mustasaari Valassaaret
62.51044,24.80764,2023-12-29 16:00:00,-6.5,Multia Karhila
63.14343,27.31317,2023-12-28 20:00:00,-6.3,Kuopio Maaninka
61.0403,28.12916,2024-01-01 01:00:00,-15.7,Lappeenranta lentoasema
62.33382,21.19081,2023-12-31 18:00:00,-13.4,Kaskinen Sälgrund
66.15344,24.9901,2024-01-01 02:00:00,-29.7,Tervola Loue
63.43508,21.06856,2023-12-29 17:00:00,-4.1,Mustasaari Valassaaret
65.01967,24.72758,2023-12-30 01:00:00,-13.0,Hailuoto Keskikylä
65.99763,29.22268,2023-12-29 00:00:00,-10.3,Kuusamo Välikangas
63.08225,25.85862,2023-12-29 12:00:00,-7.4,Viitasaari Haapaniemi
69.14089,27.26567,2023-12-28 12:00:00,-24.5,Inari Kaamanen
67.95828,23.68438,2023-12-29 00:00:00,-18.0,Muonio Oustajärvi
60.09136,19.9291,2023-12-29 16:00:00,0.8,Maarianhamina Länsisatama
62.51044,24.80764,2023-12-31 12:00:00,-13.8,Multia Karhila
65.67319,24.5152,2023-12-28 22:00:00,-6.7,Kemi Ajos
60.30098,19.13142,2023-12-28 21:00:00,2.4,Hammarland Märket
60.17123,22.75768,2023-12-28 20:00:00,-0.4,Kemiönsaari Kemiö
67.69168,24.85538,2023-12-29 10:00:00,-12.1,Kittilä lentoasema
63.75144,22.52282,2023-12-31 22:00:00,-14.2,Pietarsaari Kallan
68.08422,27.18501,2023-12-30 14:00:00,-23.4,Sodankylä Vuotso
61.85959,24.81483,2023-12-31 18:00:00,-18.7,Jämsä Halli Lentoasemantie
67.66924,24.92927,2024-01-01 07:00:00,-15.6,Kittilä Pakatti
66.8166,28.68829,2023-12-29 08:00:00,-8.3,Salla kirkonkylä
64.14263,25.42335,2023-12-29 03:00:00,-6.5,Haapavesi Mustikkamäki
61.46011,21.80839,2023-12-29 19:00:00,-2.7,Pori lentoasema
63.14166,31.04454,2023-12-31 08:00:00,-10.8,Ilomantsi Pötsönvaara
63.72655,23.14359,2023-12-29 21:00:00,-7.8,Kruunupyy Kokkola-Pietarsaari lentoasema
63.8409,27.22061,2023-12-29 03:00:00,-7.3,Vieremä Kaarakkala
60.7222,21.02681,2024-01-01 03:00:00,-11.7,Kustavi Isokari
59.91982,24.35023,2023-12-31 05:00:00,-11.9,Kirkkonummi Mäkiluoto
61.83864,22.46368,2023-12-29 16:00:00,-4.0,Kankaanpää Niinisalo lentokenttä
65.84733,24.17369,2023-12-30 00:00:00,-9.5,Tornio Torppi
64.50144,26.42386,2023-12-31 12:00:00,-13.9,Vaala Pelso
67.99746,24.20955,2023-12-31 12:00:00,-19.7,Kittilä Lompolonvuoma
61.20008,26.04967,2024-01-01 06:00:00,-18.3,Heinola Asemantaus
63.72655,23.14359,2023-12-28 16:00:00,-4.6,Kruunupyy Kokkola-Pietarsaari lentoasema
61.1982,28.47308,2023-12-30 11:00:00,-8.1,Lappeenranta Hiekkapakka
64.2976,30.17061,2023-12-29 13:00:00,-11.3,Kuhmo Kalliojoki
65.84733,24.17369,2023-12-31 15:00:00,-16.8,Tornio Torppi
66.77278,23.96303,2023-12-29 23:00:00,-12.2,Pello kirkonkylä
66.52952,24.6496,2024-01-01 05:00:00,-32.0,Ylitornio Meltosjärvi
67.98721,24.24301,2023-12-31 14:00:00,-19.8,Kittilä Kenttärova
65.38508,24.09568,2023-12-30 12:00:00,-8.2,Kemi I majakka
62.54601,29.66818,2023-12-31 17:00:00,-16.4,Liperi Tuiskavanluoto
62.23539,30.34662,2023-12-31 23:00:00,-19.4,Tohmajärvi Kemie
60.20867,25.1959,2023-12-28 17:00:00,0.5,Helsinki Vuosaari satama
62.33382,21.19081,2023-12-29 12:00:00,-1.5,Kaskinen Sälgrund
61.4194,23.62256,2023-12-31 06:00:00,-15.9,Pirkkala Tampere-Pirkkala lentoasema
60.81397,23.49825,2023-12-30 15:00:00,-6.4,Jokioinen Ilmala
66.57944,26.01094,2023-12-29 03:00:00,-8.1,Rovaniemi Apukka
60.50872,24.65375,2023-12-29 12:00:00,-1.1,Nurmijärvi Röykkä
60.27476,26.44759,2023-12-31 11:00:00,-11.1,Loviisa Orrengrund
66.15344,24.9901,2023-12-30 04:00:00,-12.1,Tervola Loue
61.85551,24.80459,2023-12-29 08:00:00,-5.1,Jämsä Halli lentoasema
65.99334,29.22715,2023-12-29 04:00:00,-9.4,Kuusamo lentoasema
62.39758,25.67087,2023-12-30 23:00:00,-16.6,Jyväskylä lentoasema
64.14263,25.42335,2023-12-29 06:00:00,-6.7,Haapavesi Mustikkamäki
64.14263,25.42335,2024-01-01 08:00:00,-21.8,Haapavesi Mustikkamäki
63.14343,27.31317,2023-12-29 17:00:00,-16.8,Kuopio Maaninka
64.05029,24.72468,2023-12-30 18:00:00,-19.1,Ylivieska lentokenttä
61.46011,21.80839,2024-01-01 00:00:00,-20.6,Pori lentoasema
62.99842,27.80817,2023-12-31 13:00:00,-14.0,Siilinjärvi Kuopio lentoasema
63.08898,24.26084,2023-12-30 12:00:00,-12.7,Alajärvi Möksy
67.99996,24.24016,2023-12-29 20:00:00,-12.9,Kittilä Matorova
61.26521,25.52021,2023-12-30 13:00:00,-7.4,Asikkala Pulkkilanharju
69.04277,20.85091,2023-12-30 08:00:00,-15.6,Enontekiö Kilpisjärvi Saana
60.20307,24.96131,2024-01-01 06:00:00,-16.2,Helsinki Kumpula
60.37538,26.95893,2023-12-30 21:00:00,-8.7,Kotka Rankki
61.03879,28.56395,2023-12-29 17:00:00,-3.4,Lappeenranta Konnunsuo
60.46415,23.64976,2023-12-30 16:00:00,-6.1,Salo Kiikala lentokenttä
63.23236,29.23397,2023-12-31 00:00:00,-19.1,Juuka Niemelä
62.68571,22.84272,2023-12-30 17:00:00,-12.6,Ilmajoki Seinäjoki lentoasema
63.23236,29.23397,2023-12-30 05:00:00,-14.3,Juuka Niemelä
62.93808,22.48878,2023-12-30 16:00:00,-11.4,Seinäjoki Pelmaa
63.23236,29.23397,2023-12-31 15:00:00,-14.1,Juuka Niemelä
63.44564,24.44422,2023-12-30 20:00:00,-14.9,Halsua Purola
61.47893,21.7832,2023-12-30 15:00:00,-5.2,Pori rautatieasema
64.05029,24.72468,2023-12-30 23:00:00,-18.0,Ylivieska lentokenttä
67.74858,29.61132,2023-12-31 02:00:00,-9.1,Salla Värriötunturi
65.57489,28.21766,2023-12-30 03:00:00,-11.3,Taivalkoski kirkonkylä
61.85551,24.80459,2023-12-29 12:00:00,-4.8,Jämsä Halli lentoasema
60.48595,26.59209,2023-12-29 21:00:00,-2.8,Pyhtää lentokenttä
59.93114,24.01408,2023-12-30 17:00:00,-3.8,Inkoo Bågaskär
61.05754,28.20873,2023-12-31 10:00:00,-15.2,Lappeenranta Lepola
59.84383,23.24859,2023-12-28 20:00:00,0.4,Hanko Tvärminne
59.94898,24.92631,2023-12-30 22:00:00,-6.1,Helsinki Helsingin majakka
65.38508,24.09568,2023-12-29 04:00:00,-6.9,Kemi I majakka
60.29128,24.56782,2023-12-29 10:00:00,-0.2,Espoo Nuuksio
66.52952,24.6496,2024-01-01 00:00:00,-27.7,Ylitornio Meltosjärvi
65.01967,24.72758,2023-12-29 00:00:00,-6.6,Hailuoto Keskikylä
60.30373,25.54916,2023-12-31 11:00:00,-13.0,Porvoo Kilpilahti satama
63.72655,23.14359,2023-12-29 16:00:00,-5.5,Kruunupyy Kokkola-Pietarsaari lentoasema
65.67319,24.5152,2023-12-30 04:00:00,-12.3,Kemi Ajos
63.83882,23.09715,2023-12-31 23:00:00,-17.6,Kokkola Santahaka
61.46011,21.80839,2023-12-28 17:00:00,-2.8,Pori lentoasema
62.89256,27.63331,2023-12-29 16:00:00,-12.5,Kuopio Savilahti
68.3614,23.42755,2023-12-29 20:00:00,-16.5,Enontekiö lentoasema
60.25299,25.04549,2023-12-29 21:00:00,-1.0,Helsinki Malmi lentokenttä
60.64668,23.80559,2023-12-29 18:00:00,-3.0,Somero Salkola
67.95828,23.68438,2023-12-28 13:00:00,-23.1,Muonio Oustajärvi
59.95911,19.95374,2023-12-30 04:00:00,0.2,Lemland Nyhamn
69.03905,20.81379,2023-12-31 02:00:00,-24.6,Enontekiö Kilpisjärvi kyläkeskus
69.07219,27.4925,2023-12-30 10:00:00,-26.0,Inari Väylä
62.79892,27.90495,2023-12-29 13:00:00,-12.6,Kuopio Ritoniemi
66.52952,24.6496,2023-12-28 14:00:00,-20.4,Ylitornio Meltosjärvi
66.71556,27.15906,2023-12-29 23:00:00,-16.0,Kemijärvi lentokenttä
64.33073,23.44627,2023-12-28 13:00:00,-3.7,Kalajoki Ulkokalla
60.64668,23.80559,2023-12-30 13:00:00,-5.8,Somero Salkola
63.44564,24.44422,2024-01-01 05:00:00,-27.4,Halsua Purola
61.87942,26.09478,2023-12-29 14:00:00,-5.4,Joutsa Savenaho
60.25299,25.04549,2023-12-28 12:00:00,-1.7,Helsinki Malmi lentokenttä
62.39758,25.67087,2023-12-28 14:00:00,-5.7,Jyväskylä lentoasema
64.2829,27.67114,2023-12-29 10:00:00,-11.0,Kajaani lentoasema
63.14166,31.04454,2023-12-30 20:00:00,-14.6,Ilomantsi Pötsönvaara
66.8166,28.68829,2023-12-29 06:00:00,-8.7,Salla kirkonkylä
68.3614,23.42755,2023-12-31 04:00:00,-26.9,Enontekiö lentoasema
60.28676,27.18482,2023-12-30 10:00:00,-2.1,Kotka Haapasaari
63.44564,24.44422,2023-12-30 03:00:00,-12.9,Halsua Purola
65.99334,29.22715,2023-12-28 11:00:00,-23.4,Kuusamo lentoasema
63.8409,27.22061,2023-12-31 18:00:00,-14.4,Vieremä Kaarakkala
64.14263,25.42335,2023-12-29 12:00:00,-7.9,Haapavesi Mustikkamäki
69.14089,27.26567,2023-12-31 05:00:00,-22.7,Inari Kaamanen
60.48595,26.59209,2023-12-30 11:00:00,-2.9,Pyhtää lentokenttä
64.33073,23.44627,2023-12-30 13:00:00,-9.2,Kalajoki Ulkokalla
59.77909,21.37479,2023-12-29 01:00:00,2.5,Parainen Utö
61.46011,21.80839,2023-12-28 15:00:00,-3.4,Pori lentoasema
66.32027,29.39967,2023-12-29 15:00:00,-11.9,Kuusamo Juuma
63.14343,27.31317,2023-12-30 10:00:00,-14.4,Kuopio Maaninka
61.6886,27.20219,2023-12-29 15:00:00,-5.9,Mikkeli lentoasema
63.95114,22.84537,2024-01-01 00:00:00,-13.2,Kokkola Tankar
60.30098,19.13142,2023-12-30 15:00:00,-0.9,Hammarland Märket
68.84928,28.29911,2023-12-30 14:00:00,-18.2,Inari Nellim
64.21678,27.75194,2024-01-01 05:00:00,-20.3,Kajaani Petäisenniska
61.25294,22.34613,2023-12-31 17:00:00,-19.3,Kokemäki Tulkkila
61.44467,29.46108,2023-12-29 08:00:00,-6.8,Parikkala Koitsanlahti
65.78944,24.58278,2024-01-01 09:00:00,-30.7,Kemi Kemi-Tornio lentoasema
67.16226,29.17766,2023-12-31 04:00:00,-9.6,Salla Naruska
61.05754,28.20873,2023-12-30 06:00:00,-3.7,Lappeenranta Lepola
61.05754,28.20873,2023-12-29 11:00:00,-4.7,Lappeenranta Lepola
65.78944,24.58278,2023-12-30 02:00:00,-11.6,Kemi Kemi-Tornio lentoasema
60.11584,20.29765,2023-12-31 13:00:00,-5.2,Lumparland Långnäs satama
61.03879,28.56395,2023-12-29 20:00:00,-2.6,Lappeenranta Konnunsuo
64.66589,24.40695,2023-12-28 23:00:00,-4.9,Raahe Lapaluoto satama
67.28296,28.1786,2023-12-29 12:00:00,-9.4,Savukoski kirkonkylä
62.32783,23.54228,2023-12-31 10:00:00,-19.8,Virrat Äijänneva
63.43508,21.06856,2024-01-01 09:00:00,-18.3,Mustasaari Valassaaret
60.11163,21.69828,2023-12-31 18:00:00,-10.2,Parainen Fagerholm
69.5825,28.89409,2023-12-30 08:00:00,-27.2,Inari Kirakkajärvi
65.01967,24.72758,2024-01-01 02:00:00,-20.4,Hailuoto Keskikylä
60.41875,24.39862,2023-12-31 01:00:00,-13.0,Vihti Maasoja
64.50144,26.42386,2023-12-30 13:00:00,-11.3,Vaala Pelso
63.75144,22.52282,2024-01-01 04:00:00,-17.6,Pietarsaari Kallan
65.99334,29.22715,2023-12-29 07:00:00,-9.3,Kuusamo lentoasema
67.66924,24.92927,2023-12-28 17:00:00,-18.7,Kittilä Pakatti
62.18329,22.79983,2023-12-28 13:00:00,-4.6,Karvia Alkkia
63.08225,25.85862,2023-12-31 00:00:00,-15.1,Viitasaari Haapaniemi
64.61178,23.89674,2023-12-30 22:00:00,-8.3,Raahe Nahkiainen
68.84928,28.29911,2023-12-28 17:00:00,-19.1,Inari Nellim
60.62773,25.19342,2023-12-29 12:00:00,-2.7,Mäntsälä Hirvihaara
60.12735,19.90038,2023-12-30 05:00:00,-0.4,Jomala Maarianhamina lentoasema
61.68751,27.20671,2023-12-28 16:00:00,-5.0,Mikkeli Lentoasema AWOS
65.99763,29.22268,2024-01-01 01:00:00,-27.6,Kuusamo Välikangas
61.05408,25.03844,2023-12-29 14:00:00,-3.8,Hämeenlinna Lammi Pappila
61.63042,21.3762,2023-12-29 09:00:00,-0.7,Pori Tahkoluoto satama
59.50454,20.34748,2023-12-28 22:00:00,3.9,Kökar Bogskär
60.37788,22.0964,2023-12-29 18:00:00,0.6,Turku Rajakari
65.01967,24.72758,2023-12-30 08:00:00,-12.9,Hailuoto Keskikylä
61.05408,25.03844,2023-12-31 00:00:00,-14.7,Hämeenlinna Lammi Pappila
60.97465,25.6202,2023-12-29 17:00:00,-3.7,Lahti Sopenkorpi
61.03879,28.56395,2023-12-28 18:00:00,-5.5,Lappeenranta Konnunsuo
60.64668,23.80559,2023-12-31 08:00:00,-16.4,Somero Salkola
60.27476,26.44759,2023-12-31 14:00:00,-10.9,Loviisa Orrengrund
65.67319,24.5152,2024-01-01 07:00:00,-22.8,Kemi Ajos
61.51757,23.75388,2024-01-01 07:00:00,-21.2,Tampere Siilinkari
65.99334,29.22715,2023-12-29 09:00:00,-10.1,Kuusamo lentoasema
60.17824,19.98686,2023-12-30 14:00:00,-2.1,Jomala Jomalaby
63.82133,24.16323,2023-12-30 03:00:00,-13.2,Toholampi Laitala
64.93698,25.37299,2023-12-31 06:00:00,-18.8,Oulu Oulunsalo Pellonpää
67.66924,24.92927,2023-12-29 21:00:00,-12.5,Kittilä Pakatti
60.20867,25.1959,2023-12-30 13:00:00,-2.3,Helsinki Vuosaari satama
61.51757,23.75388,2023-12-29 00:00:00,-3.4,Tampere Siilinkari
60.88909,26.92929,2024-01-01 06:00:00,-18.4,Kouvola Utti Lentoportintie
64.61178,23.89674,2023-12-30 16:00:00,-8.2,Raahe Nahkiainen
59.99464,23.9956,2023-12-29 20:00:00,0.7,Inkoo Jakobramsjö
63.08898,24.26084,2023-12-28 14:00:00,-5.1,Alajärvi Möksy
61.63042,21.3762,2023-12-29 04:00:00,-1.6,Pori Tahkoluoto satama
60.37788,22.0964,2023-12-30 05:00:00,-1.4,Turku Rajakari
61.25294,22.34613,2023-12-29 00:00:00,-2.0,Kokemäki Tulkkila
60.28676,27.18482,2023-12-30 23:00:00,-8.4,Kotka Haapasaari
63.99618,28.05972,2023-12-31 04:00:00,-9.7,Sotkamo Tuhkakylä
65.99334,29.22715,2023-12-31 05:00:00,-8.9,Kuusamo lentoasema
64.66404,28.05673,2023-12-31 11:00:00,-11.2,Puolanka Paljakka
65.38508,24.09568,2023-12-29 21:00:00,-6.8,Kemi I majakka
60.37392,23.11292,2023-12-31 18:00:00,-16.3,Salo Kärkkä
60.29128,24.56782,2023-12-28 19:00:00,-1.8,Espoo Nuuksio
59.93114,24.01408,2024-01-01 08:00:00,-11.8,Inkoo Bågaskär
63.14166,31.04454,2023-12-31 03:00:00,-14.2,Ilomantsi Pötsönvaara
59.91982,24.35023,2023-12-29 22:00:00,1.9,Kirkkonummi Mäkiluoto
59.86949,22.19343,2023-12-29 05:00:00,1.6,Kemiönsaari Vänö
67.95828,23.68438,2023-12-29 11:00:00,-15.2,Muonio Oustajärvi
65.40014,26.96311,2023-12-30 09:00:00,-12.3,Pudasjärvi lentokenttä
63.82133,24.16323,2024-01-01 07:00:00,-31.1,Toholampi Laitala
64.93125,28.74672,2023-12-31 19:00:00,-17.4,Suomussalmi Pesiö
60.59589,24.80297,2023-12-31 02:00:00,-15.1,Hyvinkää Hyvinkäänkylä
59.91982,24.35023,2023-12-30 02:00:00,0.7,Kirkkonummi Mäkiluoto
61.26521,25.52021,2023-12-31 19:00:00,-20.4,Asikkala Pulkkilanharju
63.75144,22.52282,2023-12-28 22:00:00,-4.3,Pietarsaari Kallan
62.06302,28.56618,2023-12-28 23:00:00,-6.4,Rantasalmi Rukkasluoto
64.14263,25.42335,2023-12-30 10:00:00,-14.0,Haapavesi Mustikkamäki
66.77278,23.96303,2023-12-29 17:00:00,-12.6,Pello kirkonkylä
59.77363,22.94868,2023-12-31 05:00:00,-9.7,Hanko Russarö
67.02191,27.21827,2023-12-31 10:00:00,-11.0,Pelkosenniemi Pyhätunturi
59.98568,25.59879,2023-12-30 09:00:00,-0.1,Porvoo Kalbådagrund
61.03879,28.56395,2023-12-31 04:00:00,-15.9,Lappeenranta Konnunsuo
59.84383,23.24859,2023-12-30 23:00:00,-4.9,Hanko Tvärminne
60.41875,24.39862,2023-12-30 13:00:00,-3.8,Vihti Maasoja
68.61336,27.4189,2023-12-31 17:00:00,-16.8,Inari Ivalo lentoasema
59.86949,22.19343,2023-12-29 14:00:00,3.6,Kemiönsaari Vänö
62.89256,27.63331,2023-12-28 13:00:00,-6.2,Kuopio Savilahti
62.33382,21.19081,2023-12-31 13:00:00,-14.3,Kaskinen Sälgrund
64.68421,25.08919,2023-12-29 13:00:00,-9.9,Siikajoki Ruukki
60.17824,19.98686,2023-12-28 21:00:00,1.3,Jomala Jomalaby
68.84928,28.29911,2023-12-31 02:00:00,-18.1,Inari Nellim
61.87942,26.09478,2023-12-29 09:00:00,-5.3,Joutsa Savenaho
60.50872,24.65375,2023-12-28 20:00:00,-2.1,Nurmijärvi Röykkä
67.02191,27.21827,2023-12-30 18:00:00,-11.5,Pelkosenniemi Pyhätunturi
62.60179,29.72713,2023-12-30 10:00:00,-13.3,Joensuu Linnunlahti
60.46415,23.64976,2023-12-29 20:00:00,-2.5,Salo Kiikala lentokenttä
61.46561,23.74678,2023-12-30 07:00:00,-6.5,Tampere Härmälä
64.21678,27.75194,2023-12-30 23:00:00,-9.6,Kajaani Petäisenniska
63.08898,24.26084,2023-12-30 17:00:00,-15.2,Alajärvi Möksy
63.32108,30.04578,2023-12-31 16:00:00,-11.7,Lieksa Lampela
61.05408,25.03844,2023-12-30 21:00:00,-12.7,Hämeenlinna Lammi Pappila
62.97839,20.74008,2023-12-31 11:00:00,-11.2,Maalahti Strömmingsbådan
60.29128,24.56782,2023-12-29 09:00:00,-0.3,Espoo Nuuksio
60.27476,26.44759,2023-12-29 17:00:00,0.0,Loviisa Orrengrund
60.29128,24.56782,2023-12-31 07:00:00,-15.9,Espoo Nuuksio
62.32783,23.54228,2023-12-31 20:00:00,-21.6,Virrat Äijänneva
59.77363,22.94868,2023-12-29 21:00:00,2.4,Hanko Russarö
61.13658,21.51518,2023-12-29 01:00:00,-1.0,Rauma Pyynpää
60.10121,25.19439,2023-12-28 15:00:00,0.3,Sipoo Itätoukki
65.99763,29.22268,2023-12-30 04:00:00,-11.5,Kuusamo Välikangas
64.93698,25.37299,2024-01-01 04:00:00,-26.1,Oulu Oulunsalo Pellonpää
61.13658,21.51518,2023-12-30 15:00:00,-5.6,Rauma Pyynpää
68.60301,23.57595,2024-01-01 09:00:00,-21.4,Enontekiö Näkkälä
61.13658,21.51518,2023-12-29 13:00:00,-0.1,Rauma Pyynpää
63.44564,24.44422,2023-12-31 11:00:00,-19.3,Halsua Purola
61.87942,26.09478,2023-12-28 23:00:00,-5.3,Joutsa Savenaho
66.57944,26.01094,2023-12-30 08:00:00,-14.9,Rovaniemi Apukka
64.93503,25.3392,2023-12-30 12:00:00,-13.1,Oulu lentoasema
61.68751,27.20671,2023-12-31 10:00:00,-14.1,Mikkeli Lentoasema AWOS
66.8166,28.68829,2023-12-30 21:00:00,-16.2,Salla kirkonkylä
60.32937,24.97274,2023-12-28 23:00:00,-0.7,Vantaa Helsinki-Vantaan lentoasema
59.84383,23.24859,2024-01-01 02:00:00,-12.5,Hanko Tvärminne
66.71556,27.15906,2023-12-28 20:00:00,-10.4,Kemijärvi lentokenttä
63.23236,29.23397,2023-12-28 12:00:00,-7.5,Juuka Niemelä
67.98721,24.24301,2023-12-28 15:00:00,-18.8,Kittilä Kenttärova
63.82133,24.16323,2023-12-30 22:00:00,-17.1,Toholampi Laitala
61.1982,28.47308,2023-12-30 01:00:00,-4.5,Lappeenranta Hiekkapakka
63.6673,28.82927,2023-12-28 11:00:00,-7.6,Nurmes Valtimo
63.09871,21.63938,2023-12-31 09:00:00,-18.0,Vaasa Klemettilä
63.12033,23.04364,2023-12-28 16:00:00,-4.5,Kauhava lentokenttä
60.41875,24.39862,2023-12-30 22:00:00,-8.1,Vihti Maasoja
67.74858,29.61132,2023-12-28 19:00:00,-10.3,Salla Värriötunturi
62.93808,22.48878,2023-12-31 23:00:00,-22.2,Seinäjoki Pelmaa
59.95911,19.95374,2023-12-30 07:00:00,-0.5,Lemland Nyhamn
61.14475,21.30273,2023-12-31 20:00:00,-13.0,Rauma Kylmäpihlaja
63.12033,23.04364,2024-01-01 07:00:00,-28.1,Kauhava lentokenttä
60.17797,24.78743,2023-12-28 15:00:00,-0.9,Espoo Tapiola
62.79892,27.90495,2023-12-29 08:00:00,-12.3,Kuopio Ritoniemi
61.0403,28.12916,2023-12-29 16:00:00,-4.0,Lappeenranta lentoasema
62.76942,30.97467,2023-12-29 07:00:00,-10.9,Ilomantsi Mekrijärvi
65.01967,24.72758,2023-12-29 08:00:00,-6.8,Hailuoto Keskikylä
63.14343,27.31317,2023-12-30 04:00:00,-10.1,Kuopio Maaninka
61.80186,29.31506,2023-12-28 13:00:00,-6.0,Savonlinna Punkaharju Laukansaari
67.74858,29.61132,2023-12-31 10:00:00,-9.5,Salla Värriötunturi
61.25294,22.34613,2023-12-29 22:00:00,-3.2,Kokemäki Tulkkila
60.51565,22.27916,2023-12-29 18:00:00,-0.3,Turku lentoasema
66.36999,29.31193,2023-12-29 11:00:00,-15.1,Kuusamo Kiutaköngäs
67.16226,29.17766,2023-12-30 07:00:00,-13.5,Salla Naruska
60.17523,24.94459,2023-12-29 18:00:00,0.7,Helsinki Kaisaniemi
60.45439,22.1787,2023-12-28 23:00:00,-0.1,Turku Artukainen
68.43399,27.44515,2023-12-31 00:00:00,-11.8,Inari Saariselkä Kaunispää
61.20008,26.04967,2023-12-31 01:00:00,-15.5,Heinola Asemantaus
59.99464,23.9956,2023-12-31 20:00:00,-12.9,Inkoo Jakobramsjö
60.27476,26.44759,2023-12-31 07:00:00,-11.6,Loviisa Orrengrund
66.71556,27.15906,2023-12-31 18:00:00,-21.4,Kemijärvi lentokenttä
62.93488,21.18485,2023-12-28 16:00:00,-4.2,Korsnäs Bredskäret
61.0403,28.12916,2023-12-29 02:00:00,-5.0,Lappeenranta lentoasema
61.05754,28.20873,2023-12-30 20:00:00,-13.9,Lappeenranta Lepola
60.51565,22.27916,2023-12-30 12:00:00,-4.0,Turku lentoasema
61.83864,22.46368,2023-12-29 00:00:00,-3.9,Kankaanpää Niinisalo lentokenttä
69.75637,27.00678,2024-01-01 05:00:00,-25.9,Utsjoki Kevo
61.85551,24.80459,2023-12-31 11:00:00,-18.0,Jämsä Halli lentoasema
68.60301,23.57595,2023-12-29 02:00:00,-14.0,Enontekiö Näkkälä
67.28296,28.1786,2023-12-31 01:00:00,-10.9,Savukoski kirkonkylä
62.65695,29.63608,2023-12-30 02:00:00,-11.6,Liperi Joensuu lentoasema
65.99763,29.22268,2023-12-31 23:00:00,-25.7,Kuusamo Välikangas
68.06284,24.03335,2023-12-30 21:00:00,-13.1,Muonio Laukukero
60.30373,25.54916,2023-12-28 17:00:00,0.6,Porvoo Kilpilahti satama
67.28296,28.1786,2023-12-30 11:00:00,-14.8,Savukoski kirkonkylä
65.99763,29.22268,2023-12-29 17:00:00,-9.9,Kuusamo Välikangas
60.32937,24.97274,2023-12-31 14:00:00,-15.4,Vantaa Helsinki-Vantaan lentoasema
66.16614,29.15177,2023-12-30 00:00:00,-14.5,Kuusamo Rukatunturi
60.88909,26.92929,2023-12-30 22:00:00,-14.9,Kouvola Utti Lentoportintie
63.83882,23.09715,2023-12-29 00:00:00,-4.6,Kokkola Santahaka
65.97717,26.36757,2023-12-31 19:00:00,-21.1,Ranua lentokenttä
70.08203,27.8965,2023-12-31 05:00:00,-22.1,Utsjoki Nuorgam
69.07219,27.4925,2023-12-28 20:00:00,-16.3,Inari Väylä
60.45439,22.1787,2023-12-29 07:00:00,0.1,Turku Artukainen
67.28296,28.1786,2023-12-30 12:00:00,-15.9,Savukoski kirkonkylä
67.95828,23.68438,2023-12-28 11:00:00,-23.8,Muonio Oustajärvi
64.61178,23.89674,2023-12-30 13:00:00,-9.5,Raahe Nahkiainen
68.61336,27.4189,2023-12-28 14:00:00,-13.0,Inari Ivalo lentoasema
60.64668,23.80559,2023-12-31 15:00:00,-16.0,Somero Salkola
60.41875,24.39862,2023-12-28 13:00:00,-3.3,Vihti Maasoja
61.13658,21.51518,2023-12-31 03:00:00,-13.0,Rauma Pyynpää
64.2976,30.17061,2023-12-28 22:00:00,-7.8,Kuhmo Kalliojoki
59.82076,23.57309,2023-12-29 04:00:00,0.8,Raasepori Jussarö
60.97465,25.6202,2023-12-30 17:00:00,-8.2,Lahti Sopenkorpi
64.21678,27.75194,2023-12-31 15:00:00,-14.2,Kajaani Petäisenniska
60.37538,26.95893,2023-12-31 23:00:00,-11.9,Kotka Rankki
62.89256,27.63331,2024-01-01 10:00:00,-21.4,Kuopio Savilahti
60.25299,25.04549,2023-12-28 23:00:00,-0.1,Helsinki Malmi lentokenttä
67.7687,29.21102,2023-12-29 02:00:00,-10.7,Savukoski Tulppio
60.17824,19.98686,2023-12-29 23:00:00,0.3,Jomala Jomalaby
64.68421,25.08919,2023-12-29 02:00:00,-6.7,Siikajoki Ruukki
60.25823,20.74698,2023-12-31 18:00:00,-8.7,Kumlinge kirkonkylä
68.06284,24.03335,2023-12-29 16:00:00,-11.9,Muonio Laukukero
60.81397,23.49825,2023-12-28 21:00:00,-2.3,Jokioinen Ilmala
60.88909,26.92929,2023-12-29 19:00:00,-3.7,Kouvola Utti Lentoportintie
60.97465,25.6202,2023-12-29 12:00:00,-3.7,Lahti Sopenkorpi
60.3869,22.55183,2024-01-01 07:00:00,-19.5,Kaarina Yltöinen
69.75637,27.00678,2023-12-31 20:00:00,-23.5,Utsjoki Kevo
59.84383,23.24859,2023-12-30 10:00:00,-0.8,Hanko Tvärminne
63.44564,24.44422,2023-12-30 22:00:00,-17.3,Halsua Purola
69.04277,20.85091,2023-12-28 15:00:00,-8.1,Enontekiö Kilpisjärvi Saana
64.93698,25.37299,2023-12-30 04:00:00,-11.3,Oulu Oulunsalo Pellonpää
59.91982,24.35023,2023-12-30 09:00:00,-0.6,Kirkkonummi Mäkiluoto
63.8409,27.22061,2023-12-30 17:00:00,-11.1,Vieremä Kaarakkala
60.64668,23.80559,2023-12-30 12:00:00,-5.1,Somero Salkola
63.82133,24.16323,2023-12-29 15:00:00,-7.4,Toholampi Laitala
60.97465,25.6202,2023-12-30 14:00:00,-7.0,Lahti Sopenkorpi
61.20008,26.04967,2023-12-30 00:00:00,-4.6,Heinola Asemantaus
59.77909,21.37479,2024-01-01 09:00:00,-5.7,Parainen Utö
62.18329,22.79983,2023-12-31 23:00:00,-22.2,Karvia Alkkia
63.23236,29.23397,2023-12-30 01:00:00,-14.2,Juuka Niemelä
67.28296,28.1786,2023-12-29 05:00:00,-10.6,Savukoski kirkonkylä
65.84733,24.17369,2023-12-29 19:00:00,-7.7,Tornio Torppi
61.20008,26.04967,2023-12-29 12:00:00,-3.9,Heinola Asemantaus
62.89256,27.63331,2023-12-29 01:00:00,-5.9,Kuopio Savilahti
67.69168,24.85538,2024-01-01 04:00:00,-15.3,Kittilä lentoasema
64.99685,25.52233,2023-12-29 05:00:00,-7.3,Oulu Kaukovainio
69.04277,20.85091,2023-12-30 03:00:00,-15.1,Enontekiö Kilpisjärvi Saana
63.08898,24.26084,2023-12-28 12:00:00,-5.2,Alajärvi Möksy
61.11454,24.32449,2023-12-31 02:00:00,-15.9,Hattula Lepaa
61.68751,27.20671,2023-12-30 13:00:00,-10.2,Mikkeli Lentoasema AWOS
62.54601,29.66818,2023-12-30 21:00:00,-16.6,Liperi Tuiskavanluoto
61.51757,23.75388,2023-12-29 09:00:00,-3.0,Tampere Siilinkari
66.15344,24.9901,2023-12-31 09:00:00,-18.9,Tervola Loue
60.50872,24.65375,2023-12-30 05:00:00,-3.1,Nurmijärvi Röykkä
60.29128,24.56782,2023-12-31 11:00:00,-15.1,Espoo Nuuksio
61.84591,24.28696,2023-12-28 12:00:00,-4.2,Juupajoki Hyytiälä
60.89839,26.94882,2023-12-30 15:00:00,-8.4,Kouvola Utti lentoasema
68.84928,28.29911,2023-12-29 23:00:00,-16.9,Inari Nellim
64.93698,25.37299,2023-12-30 19:00:00,-13.4,Oulu Oulunsalo Pellonpää
65.67319,24.5152,2023-12-29 20:00:00,-7.1,Kemi Ajos
62.06302,28.56618,2023-12-29 01:00:00,-9.0,Rantasalmi Rukkasluoto
59.82076,23.57309,2023-12-31 22:00:00,-9.8,Raasepori Jussarö
64.2976,30.17061,2023-12-29 17:00:00,-11.2,Kuhmo Kalliojoki
64.21678,27.75194,2023-12-30 12:00:00,-10.2,Kajaani Petäisenniska
64.93698,25.37299,2023-12-28 18:00:00,-6.8,Oulu Oulunsalo Pellonpää
59.77909,21.37479,2023-12-31 04:00:00,-5.4,Parainen Utö
65.40014,26.96311,2023-12-29 13:00:00,-7.7,Pudasjärvi lentokenttä
65.99763,29.22268,2023-12-28 23:00:00,-10.5,Kuusamo Välikangas
61.51757,23.75388,2023-12-30 22:00:00,-14.7,Tampere Siilinkari
66.77278,23.96303,2023-12-31 20:00:00,-21.2,Pello kirkonkylä
59.91982,24.35023,2023-12-29 12:00:00,1.7,Kirkkonummi Mäkiluoto
63.09871,21.63938,2023-12-30 00:00:00,-6.2,Vaasa Klemettilä
60.20307,24.96131,2023-12-31 15:00:00,-14.9,Helsinki Kumpula
66.71556,27.15906,2023-12-30 19:00:00,-11.0,Kemijärvi lentokenttä
60.88909,26.92929,2023-12-31 10:00:00,-15.8,Kouvola Utti Lentoportintie
61.03879,28.56395,2023-12-31 17:00:00,-13.5,Lappeenranta Konnunsuo
60.20382,25.62546,2023-12-31 01:00:00,-13.2,Porvoo Emäsalo
70.08203,27.8965,2023-12-30 18:00:00,-16.7,Utsjoki Nuorgam
60.9992,24.49163,2023-12-30 08:00:00,-4.9,Hämeenlinna Katinen
68.43399,27.44515,2023-12-29 07:00:00,-11.2,Inari Saariselkä Kaunispää
66.57283,25.84865,2024-01-01 03:00:00,-19.1,Rovaniemi lentoasema AWOS
66.1716,29.13646,2023-12-28 15:00:00,-10.8,Kuusamo Ruka Talvijärvi
61.05754,28.20873,2023-12-29 01:00:00,-4.8,Lappeenranta Lepola
60.50872,24.65375,2023-12-30 03:00:00,-3.2,Nurmijärvi Röykkä
60.3869,22.55183,2023-12-29 12:00:00,0.4,Kaarina Yltöinen
60.62773,25.19342,2023-12-28 16:00:00,-3.9,Mäntsälä Hirvihaara
64.93698,25.37299,2023-12-29 21:00:00,-11.3,Oulu Oulunsalo Pellonpää
67.82147,27.74597,2023-12-29 11:00:00,-11.0,Sodankylä Lokka
62.33382,21.19081,2023-12-31 20:00:00,-14.7,Kaskinen Sälgrund
62.93488,21.18485,2023-12-31 22:00:00,-15.3,Korsnäs Bredskäret
67.02191,27.21827,2023-12-28 20:00:00,-12.5,Pelkosenniemi Pyhätunturi
60.59589,24.80297,2023-12-29 10:00:00,-1.2,Hyvinkää Hyvinkäänkylä
65.38508,24.09568,2023-12-28 11:00:00,-3.7,Kemi I majakka
60.30373,25.54916,2023-12-31 17:00:00,-14.4,Porvoo Kilpilahti satama
59.80864,22.91246,2023-12-29 09:00:00,2.4,Hanko Tulliniemi
64.93125,28.74672,2023-12-29 20:00:00,-10.9,Suomussalmi Pesiö
60.37392,23.11292,2023-12-28 12:00:00,-1.6,Salo Kärkkä
68.90296,25.73646,2023-12-28 12:00:00,-10.0,Inari Angeli Lintupuoliselkä
60.20867,25.1959,2024-01-01 07:00:00,-15.2,Helsinki Vuosaari satama
64.11197,28.33639,2023-12-29 00:00:00,-6.8,Sotkamo Kuolaniemi
61.83864,22.46368,2023-12-28 19:00:00,-4.9,Kankaanpää Niinisalo lentokenttä
62.93488,21.18485,2023-12-31 21:00:00,-15.7,Korsnäs Bredskäret
65.01967,24.72758,2023-12-31 10:00:00,-9.9,Hailuoto Keskikylä
67.82147,27.74597,2023-12-29 14:00:00,-10.7,Sodankylä Lokka
68.41507,27.41323,2023-12-30 10:00:00,-15.5,Inari Saariselkä matkailukeskus
59.94898,24.92631,2024-01-01 06:00:00,-9.0,Helsinki Helsingin majakka
63.23236,29.23397,2024-01-01 03:00:00,-28.0,Juuka Niemelä
60.81397,23.49825,2023-12-31 05:00:00,-16.4,Jokioinen Ilmala
60.39172,25.6073,2023-12-29 20:00:00,-2.0,Porvoo Harabacka
59.84383,23.24859,2023-12-28 15:00:00,0.7,Hanko Tvärminne
62.93488,21.18485,2024-01-01 10:00:00,-19.1,Korsnäs Bredskäret
65.84733,24.17369,2023-12-30 22:00:00,-13.7,Tornio Torppi
60.30373,25.54916,2023-12-29 01:00:00,0.3,Porvoo Kilpilahti satama
64.2976,30.17061,2023-12-31 00:00:00,-11.3,Kuhmo Kalliojoki
63.75144,22.52282,2023-12-30 13:00:00,-11.6,Pietarsaari Kallan
62.32221,27.90785,2023-12-30 09:00:00,-11.7,Varkaus Kosulanniemi
68.16961,25.78316,2023-12-29 01:00:00,-12.5,Kittilä Pokka
63.05858,21.7546,2024-01-01 01:00:00,-23.2,Vaasa lentoasema
62.23539,30.34662,2023-12-29 05:00:00,-13.8,Tohmajärvi Kemie
63.32108,30.04578,2023-12-30 19:00:00,-13.6,Lieksa Lampela
60.11163,21.69828,2023-12-29 07:00:00,1.4,Parainen Fagerholm
62.32221,27.90785,2023-12-30 15:00:00,-15.7,Varkaus Kosulanniemi
60.17797,24.78743,2023-12-30 02:00:00,-1.4,Espoo Tapiola
68.41507,27.41323,2023-12-30 18:00:00,-15.7,Inari Saariselkä matkailukeskus
63.73589,25.70573,2023-12-30 20:00:00,-14.8,Pyhäjärvi Ojakylä
60.32937,24.97274,2023-12-30 22:00:00,-9.1,Vantaa Helsinki-Vantaan lentoasema
60.41875,24.39862,2023-12-29 10:00:00,0.0,Vihti Maasoja
63.72655,23.14359,2023-12-29 12:00:00,-5.2,Kruunupyy Kokkola-Pietarsaari lentoasema
68.41507,27.41323,2023-12-30 13:00:00,-18.5,Inari Saariselkä matkailukeskus
61.05754,28.20873,2023-12-28 23:00:00,-5.3,Lappeenranta Lepola
68.3614,23.42755,2023-12-31 21:00:00,-25.2,Enontekiö lentoasema
68.41507,27.41323,2024-01-01 06:00:00,-12.9,Inari Saariselkä matkailukeskus
65.78944,24.58278,2023-12-28 11:00:00,-14.8,Kemi Kemi-Tornio lentoasema
64.93125,28.74672,2024-01-01 04:00:00,-22.0,Suomussalmi Pesiö
60.28676,27.18482,2024-01-01 04:00:00,-11.2,Kotka Haapasaari
62.51044,24.80764,2023-12-28 17:00:00,-5.7,Multia Karhila
62.79892,27.90495,2023-12-31 19:00:00,-13.6,Kuopio Ritoniemi
60.32937,24.97274,2023-12-29 21:00:00,-2.2,Vantaa Helsinki-Vantaan lentoasema
60.17523,24.94459,2023-12-30 22:00:00,-7.5,Helsinki Kaisaniemi
62.65695,29.63608,2023-12-28 18:00:00,-7.6,Liperi Joensuu lentoasema
61.03879,28.56395,2023-12-29 05:00:00,-4.5,Lappeenranta Konnunsuo
60.29128,24.56782,2023-12-28 16:00:00,-2.7,Espoo Nuuksio
62.32221,27.90785,2023-12-31 22:00:00,-19.9,Varkaus Kosulanniemi
67.69168,24.85538,2023-12-29 09:00:00,-12.3,Kittilä lentoasema
60.6965,26.81106,2023-12-29 14:00:00,-3.4,Kouvola Anjala
60.17824,19.98686,2023-12-28 18:00:00,1.7,Jomala Jomalaby
62.79892,27.90495,2023-12-28 17:00:00,-6.8,Kuopio Ritoniemi
62.32783,23.54228,2023-12-30 11:00:00,-8.7,Virrat Äijänneva
61.51757,23.75388,2023-12-28 12:00:00,-2.9,Tampere Siilinkari
68.43399,27.44515,2023-12-30 11:00:00,-13.4,Inari Saariselkä Kaunispää
69.757,27.012,2023-12-29 09:00:00,-11.9,Utsjoki Kevo Kevojärvi
60.9992,24.49163,2023-12-31 12:00:00,-15.8,Hämeenlinna Katinen
69.75637,27.00678,2024-01-01 01:00:00,-27.1,Utsjoki Kevo
64.50144,26.42386,2023-12-31 21:00:00,-24.4,Vaala Pelso
67.66924,24.92927,2023-12-28 19:00:00,-17.6,Kittilä Pakatti
69.75637,27.00678,2023-12-31 22:00:00,-24.7,Utsjoki Kevo
59.50454,20.34748,2023-12-29 13:00:00,4.5,Kökar Bogskär
60.89839,26.94882,2023-12-31 08:00:00,-15.7,Kouvola Utti lentoasema
62.23539,30.34662,2023-12-30 20:00:00,-17.1,Tohmajärvi Kemie
62.99842,27.80817,2023-12-29 23:00:00,-11.5,Siilinjärvi Kuopio lentoasema
62.99842,27.80817,2024-01-01 07:00:00,-20.5,Siilinjärvi Kuopio lentoasema
63.83882,23.09715,2023-12-30 05:00:00,-12.9,Kokkola Santahaka
66.77278,23.96303,2024-01-01 10:00:00,-32.3,Pello kirkonkylä
66.56236,25.83814,2023-12-30 15:00:00,-11.1,Rovaniemi lentoasema
63.14343,27.31317,2023-12-28 22:00:00,-6.1,Kuopio Maaninka
62.32221,27.90785,2024-01-01 03:00:00,-23.7,Varkaus Kosulanniemi
60.64668,23.80559,2023-12-29 01:00:00,-1.7,Somero Salkola
62.39758,25.67087,2023-12-30 11:00:00,-10.2,Jyväskylä lentoasema
63.14166,31.04454,2024-01-01 09:00:00,-22.1,Ilomantsi Pötsönvaara
64.93698,25.37299,2023-12-28 22:00:00,-6.6,Oulu Oulunsalo Pellonpää
68.61336,27.4189,2023-12-29 04:00:00,-10.7,Inari Ivalo lentoasema
61.25294,22.34613,2024-01-01 04:00:00,-16.6,Kokemäki Tulkkila
61.4194,23.62256,2024-01-01 06:00:00,-19.6,Pirkkala Tampere-Pirkkala lentoasema
60.09136,19.9291,2023-12-29 23:00:00,0.7,Maarianhamina Länsisatama
60.81397,23.49825,2023-12-30 20:00:00,-7.7,Jokioinen Ilmala
64.66589,24.40695,2023-12-28 12:00:00,-6.5,Raahe Lapaluoto satama
61.85551,24.80459,2023-12-30 20:00:00,-13.9,Jämsä Halli lentoasema
61.44467,29.46108,2023-12-29 01:00:00,-5.6,Parikkala Koitsanlahti
67.97328,24.11559,2023-12-29 23:00:00,-12.9,Muonio Sammaltunturi
64.68421,25.08919,2023-12-31 12:00:00,-16.4,Siikajoki Ruukki
61.83864,22.46368,2023-12-29 17:00:00,-4.0,Kankaanpää Niinisalo lentokenttä
61.05408,25.03844,2023-12-28 22:00:00,-3.1,Hämeenlinna Lammi Pappila
60.41875,24.39862,2023-12-31 06:00:00,-20.2,Vihti Maasoja
61.63042,21.3762,2023-12-29 17:00:00,-2.3,Pori Tahkoluoto satama
67.66924,24.92927,2023-12-28 15:00:00,-19.0,Kittilä Pakatti
62.33382,21.19081,2023-12-30 00:00:00,-3.7,Kaskinen Sälgrund
61.46561,23.74678,2023-12-28 16:00:00,-3.9,Tampere Härmälä
62.60179,29.72713,2024-01-01 04:00:00,-19.8,Joensuu Linnunlahti
60.17123,22.75768,2023-12-30 17:00:00,-4.8,Kemiönsaari Kemiö
62.33382,21.19081,2023-12-29 22:00:00,-3.0,Kaskinen Sälgrund
69.04277,20.85091,2023-12-28 21:00:00,-9.0,Enontekiö Kilpisjärvi Saana
65.84733,24.17369,2023-12-31 09:00:00,-15.2,Tornio Torppi
60.37538,26.95893,2023-12-31 22:00:00,-11.3,Kotka Rankki
63.99618,28.05972,2023-12-29 14:00:00,-12.0,Sotkamo Tuhkakylä
64.66589,24.40695,2024-01-01 09:00:00,-20.2,Raahe Lapaluoto satama
66.36999,29.31193,2023-12-30 22:00:00,-17.3,Kuusamo Kiutaköngäs
63.32108,30.04578,2024-01-01 02:00:00,-20.7,Lieksa Lampela
61.0403,28.12916,2023-12-31 09:00:00,-15.5,Lappeenranta lentoasema
60.17824,19.98686,2023-12-31 14:00:00,-8.1,Jomala Jomalaby
60.20307,24.96131,2023-12-29 10:00:00,0.5,Helsinki Kumpula
60.39172,25.6073,2023-12-28 15:00:00,-2.7,Porvoo Harabacka
67.7687,29.21102,2023-12-31 22:00:00,-16.3,Savukoski Tulppio
61.83864,22.46368,2023-12-28 22:00:00,-4.5,Kankaanpää Niinisalo lentokenttä
60.37392,23.11292,2023-12-29 06:00:00,-0.1,Salo Kärkkä
61.70448,25.50529,2023-12-31 20:00:00,-15.9,Luhanka Judinsalo
62.32221,27.90785,2023-12-28 21:00:00,-6.0,Varkaus Kosulanniemi
66.32027,29.39967,2023-12-31 21:00:00,-20.0,Kuusamo Juuma
69.07219,27.4925,2023-12-31 13:00:00,-17.9,Inari Väylä
67.74858,29.61132,2023-12-28 11:00:00,-9.9,Salla Värriötunturi
61.13658,21.51518,2024-01-01 00:00:00,-17.1,Rauma Pyynpää
66.36999,29.31193,2023-12-29 02:00:00,-12.4,Kuusamo Kiutaköngäs
61.6886,27.20219,2023-12-28 21:00:00,-5.6,Mikkeli lentoasema
61.25294,22.34613,2023-12-28 18:00:00,-2.7,Kokemäki Tulkkila
59.77909,21.37479,2023-12-29 17:00:00,2.4,Parainen Utö
62.33382,21.19081,2023-12-31 19:00:00,-14.6,Kaskinen Sälgrund
61.6886,27.20219,2023-12-28 11:00:00,-5.1,Mikkeli lentoasema
60.11584,20.29765,2023-12-29 05:00:00,0.3,Lumparland Långnäs satama
61.68751,27.20671,2023-12-28 19:00:00,-5.3,Mikkeli Lentoasema AWOS
66.36999,29.31193,2024-01-01 01:00:00,-33.7,Kuusamo Kiutaköngäs
60.97465,25.6202,2023-12-31 19:00:00,-14.3,Lahti Sopenkorpi
62.79892,27.90495,2023-12-30 06:00:00,-11.2,Kuopio Ritoniemi
68.08422,27.18501,2023-12-28 16:00:00,-14.9,Sodankylä Vuotso
60.30098,19.13142,2023-12-29 14:00:00,0.8,Hammarland Märket
64.21678,27.75194,2023-12-31 11:00:00,-12.5,Kajaani Petäisenniska
61.70448,25.50529,2023-12-29 16:00:00,-4.3,Luhanka Judinsalo
61.14475,21.30273,2023-12-30 20:00:00,-5.4,Rauma Kylmäpihlaja
61.20008,26.04967,2024-01-01 01:00:00,-17.3,Heinola Asemantaus
60.51565,22.27916,2023-12-28 19:00:00,-0.8,Turku lentoasema
62.20324,21.16983,2023-12-31 22:00:00,-11.1,Kristiinankaupunki Majakka
62.33382,21.19081,2023-12-29 16:00:00,-2.7,Kaskinen Sälgrund
68.41507,27.41323,2023-12-29 03:00:00,-11.6,Inari Saariselkä matkailukeskus
60.27476,26.44759,2023-12-30 19:00:00,-4.9,Loviisa Orrengrund
60.81397,23.49825,2023-12-31 20:00:00,-20.9,Jokioinen Ilmala
60.89839,26.94882,2024-01-01 05:00:00,-17.6,Kouvola Utti lentoasema
69.14089,27.26567,2023-12-31 15:00:00,-18.6,Inari Kaamanen
61.8923,27.88528,2023-12-30 22:00:00,-15.8,Juva Partala
63.14343,27.31317,2023-12-28 17:00:00,-6.5,Kuopio Maaninka
60.20867,25.1959,2023-12-31 13:00:00,-12.3,Helsinki Vuosaari satama
64.93125,28.74672,2023-12-30 18:00:00,-8.7,Suomussalmi Pesiö
60.97465,25.6202,2023-12-31 22:00:00,-15.9,Lahti Sopenkorpi
69.14089,27.26567,2023-12-28 16:00:00,-17.9,Inari Kaamanen
60.48595,26.59209,2023-12-29 12:00:00,-2.8,Pyhtää lentokenttä
64.93125,28.74672,2023-12-29 16:00:00,-10.7,Suomussalmi Pesiö
59.95911,19.95374,2023-12-29 13:00:00,2.2,Lemland Nyhamn
60.20307,24.96131,2024-01-01 07:00:00,-16.4,Helsinki Kumpula
60.62773,25.19342,2023-12-31 09:00:00,-16.1,Mäntsälä Hirvihaara
67.74858,29.61132,2023-12-31 00:00:00,-9.4,Salla Värriötunturi
60.10512,24.97539,2023-12-30 10:00:00,-1.5,Helsinki Harmaja
62.65695,29.63608,2023-12-30 15:00:00,-13.8,Liperi Joensuu lentoasema
63.09871,21.63938,2023-12-29 20:00:00,-4.3,Vaasa Klemettilä
64.66589,24.40695,2023-12-30 03:00:00,-12.3,Raahe Lapaluoto satama
63.14166,31.04454,2023-12-30 16:00:00,-13.5,Ilomantsi Pötsönvaara
60.27476,26.44759,2023-12-29 11:00:00,0.4,Loviisa Orrengrund
61.20008,26.04967,2023-12-28 16:00:00,-4.8,Heinola Asemantaus
63.75144,22.52282,2023-12-31 23:00:00,-15.0,Pietarsaari Kallan
65.01967,24.72758,2023-12-29 16:00:00,-7.9,Hailuoto Keskikylä
62.39758,25.67087,2023-12-29 22:00:00,-8.7,Jyväskylä lentoasema
60.32937,24.97274,2023-12-29 18:00:00,-1.9,Vantaa Helsinki-Vantaan lentoasema
61.84591,24.28696,2023-12-31 20:00:00,-18.3,Juupajoki Hyytiälä
63.73589,25.70573,2023-12-31 19:00:00,-24.0,Pyhäjärvi Ojakylä
65.40014,26.96311,2023-12-29 07:00:00,-7.4,Pudasjärvi lentokenttä
60.24446,24.04951,2023-12-31 15:00:00,-15.2,Lohja Porla
60.32937,24.97274,2024-01-01 05:00:00,-17.2,Vantaa Helsinki-Vantaan lentoasema
69.5825,28.89409,2024-01-01 04:00:00,-13.8,Inari Kirakkajärvi
59.86949,22.19343,2023-12-31 17:00:00,-9.8,Kemiönsaari Vänö
64.66589,24.40695,2023-12-30 19:00:00,-11.0,Raahe Lapaluoto satama
68.41507,27.41323,2023-12-28 12:00:00,-14.9,Inari Saariselkä matkailukeskus
62.18329,22.79983,2023-12-31 17:00:00,-19.9,Karvia Alkkia
63.14343,27.31317,2024-01-01 00:00:00,-18.7,Kuopio Maaninka
63.37806,28.66166,2023-12-30 06:00:00,-14.1,Rautavaara Ylä-Luosta
63.08225,25.85862,2023-12-31 13:00:00,-16.5,Viitasaari Haapaniemi
67.95828,23.68438,2023-12-30 02:00:00,-11.7,Muonio Oustajärvi
67.97328,24.11559,2023-12-31 01:00:00,-11.3,Muonio Sammaltunturi
63.08898,24.26084,2023-12-29 07:00:00,-5.6,Alajärvi Möksy
61.26521,25.52021,2023-12-29 08:00:00,-4.0,Asikkala Pulkkilanharju
69.757,27.012,2023-12-30 14:00:00,-21.2,Utsjoki Kevo Kevojärvi
69.07219,27.4925,2023-12-30 12:00:00,-21.1,Inari Väylä
64.66589,24.40695,2023-12-31 11:00:00,-10.0,Raahe Lapaluoto satama
61.26521,25.52021,2023-12-31 10:00:00,-18.8,Asikkala Pulkkilanharju
63.8409,27.22061,2023-12-30 01:00:00,-12.8,Vieremä Kaarakkala
60.30098,19.13142,2023-12-29 10:00:00,0.4,Hammarland Märket
64.66404,28.05673,2023-12-29 22:00:00,-12.3,Puolanka Paljakka
61.52242,28.18491,2024-01-01 05:00:00,-17.4,Puumala kirkonkylä
66.56236,25.83814,2024-01-01 04:00:00,-21.3,Rovaniemi lentoasema
65.40014,26.96311,2023-12-31 18:00:00,-19.6,Pudasjärvi lentokenttä
61.85959,24.81483,2023-12-31 09:00:00,-19.6,Jämsä Halli Lentoasemantie
65.99334,29.22715,2023-12-30 11:00:00,-10.9,Kuusamo lentoasema
64.11197,28.33639,2024-01-01 10:00:00,-24.7,Sotkamo Kuolaniemi
63.32108,30.04578,2023-12-30 13:00:00,-20.5,Lieksa Lampela
60.41875,24.39862,2023-12-30 23:00:00,-10.3,Vihti Maasoja
66.32027,29.39967,2023-12-31 07:00:00,-12.2,Kuusamo Juuma
63.08898,24.26084,2023-12-31 07:00:00,-17.2,Alajärvi Möksy
69.07219,27.4925,2023-12-30 07:00:00,-27.0,Inari Väylä
64.33073,23.44627,2024-01-01 04:00:00,-14.1,Kalajoki Ulkokalla
61.26521,25.52021,2023-12-28 16:00:00,-4.8,Asikkala Pulkkilanharju
63.73589,25.70573,2023-12-31 12:00:00,-19.3,Pyhäjärvi Ojakylä
68.08422,27.18501,2023-12-28 12:00:00,-16.8,Sodankylä Vuotso
62.32221,27.90785,2023-12-31 04:00:00,-16.1,Varkaus Kosulanniemi
69.04277,20.85091,2024-01-01 03:00:00,-16.9,Enontekiö Kilpisjärvi Saana
68.41507,27.41323,2024-01-01 02:00:00,-12.1,Inari Saariselkä matkailukeskus
69.14089,27.26567,2023-12-29 05:00:00,-13.4,Inari Kaamanen
61.46011,21.80839,2023-12-29 14:00:00,-1.4,Pori lentoasema
60.17824,19.98686,2023-12-30 08:00:00,-1.2,Jomala Jomalaby
61.70448,25.50529,2023-12-31 03:00:00,-15.1,Luhanka Judinsalo
66.15344,24.9901,2023-12-28 18:00:00,-7.8,Tervola Loue
62.92178,26.4247,2023-12-30 15:00:00,-15.6,Vesanto kirkonkylä
62.93488,21.18485,2023-12-29 22:00:00,-4.1,Korsnäs Bredskäret
62.39758,25.67087,2023-12-29 19:00:00,-8.2,Jyväskylä lentoasema
60.45439,22.1787,2023-12-28 19:00:00,-0.5,Turku Artukainen
60.29128,24.56782,2023-12-28 17:00:00,-2.6,Espoo Nuuksio
63.83882,23.09715,2023-12-31 14:00:00,-16.2,Kokkola Santahaka
62.55461,24.14239,2023-12-30 09:00:00,-9.0,Ähtäri Inha
67.66924,24.92927,2023-12-31 06:00:00,-16.4,Kittilä Pakatti
66.32027,29.39967,2023-12-30 01:00:00,-14.7,Kuusamo Juuma
59.84383,23.24859,2023-12-28 23:00:00,0.4,Hanko Tvärminne
61.05408,25.03844,2023-12-29 16:00:00,-3.9,Hämeenlinna Lammi Pappila
69.07219,27.4925,2023-12-28 17:00:00,-18.6,Inari Väylä
67.82147,27.74597,2023-12-31 13:00:00,-12.6,Sodankylä Lokka
68.41507,27.41323,2023-12-29 00:00:00,-11.8,Inari Saariselkä matkailukeskus
60.10512,24.97539,2024-01-01 04:00:00,-11.6,Helsinki Harmaja
65.01967,24.72758,2023-12-28 21:00:00,-6.0,Hailuoto Keskikylä
60.28676,27.18482,2023-12-31 11:00:00,-9.9,Kotka Haapasaari
60.11163,21.69828,2024-01-01 00:00:00,-10.4,Parainen Fagerholm
61.46561,23.74678,2023-12-29 22:00:00,-4.4,Tampere Härmälä
63.08898,24.26084,2023-12-28 16:00:00,-5.0,Alajärvi Möksy
66.1716,29.13646,2023-12-31 07:00:00,-16.1,Kuusamo Ruka Talvijärvi
66.57944,26.01094,2023-12-29 07:00:00,-8.1,Rovaniemi Apukka
60.6965,26.81106,2023-12-28 12:00:00,-4.4,Kouvola Anjala
60.39172,25.6073,2023-12-31 01:00:00,-14.2,Porvoo Harabacka
61.05408,25.03844,2023-12-30 08:00:00,-5.8,Hämeenlinna Lammi Pappila
63.75144,22.52282,2023-12-31 11:00:00,-11.7,Pietarsaari Kallan
60.5272,27.67274,2023-12-30 16:00:00,-5.7,Virolahti Koivuniemi
61.14475,21.30273,2023-12-30 05:00:00,-2.7,Rauma Kylmäpihlaja
61.25294,22.34613,2023-12-29 14:00:00,-1.4,Kokemäki Tulkkila
59.77909,21.37479,2023-12-30 15:00:00,-1.2,Parainen Utö
60.50872,24.65375,2023-12-29 15:00:00,-2.5,Nurmijärvi Röykkä
64.2829,27.67114,2024-01-01 00:00:00,-19.8,Kajaani lentoasema
62.32221,27.90785,2023-12-30 18:00:00,-16.2,Varkaus Kosulanniemi
63.72655,23.14359,2023-12-29 14:00:00,-5.3,Kruunupyy Kokkola-Pietarsaari lentoasema
64.2976,30.17061,2023-12-30 15:00:00,-8.9,Kuhmo Kalliojoki
64.14263,25.42335,2023-12-28 20:00:00,-6.6,Haapavesi Mustikkamäki
64.68421,25.08919,2023-12-30 23:00:00,-15.8,Siikajoki Ruukki
61.8923,27.88528,2023-12-31 23:00:00,-16.5,Juva Partala
64.99685,25.52233,2024-01-01 01:00:00,-23.3,Oulu Kaukovainio
60.51565,22.27916,2024-01-01 10:00:00,-16.2,Turku lentoasema
62.76942,30.97467,2023-12-30 04:00:00,-13.9,Ilomantsi Mekrijärvi
60.28676,27.18482,2023-12-30 18:00:00,-4.6,Kotka Haapasaari
61.85959,24.81483,2024-01-01 01:00:00,-21.9,Jämsä Halli Lentoasemantie
62.76942,30.97467,2023-12-29 18:00:00,-13.0,Ilomantsi Mekrijärvi
60.12735,19.90038,2023-12-30 18:00:00,-2.7,Jomala Maarianhamina lentoasema
60.39172,25.6073,2023-12-29 21:00:00,-2.0,Porvoo Harabacka
64.93503,25.3392,2023-12-28 17:00:00,-6.8,Oulu lentoasema
59.95911,19.95374,2023-12-31 06:00:00,-4.2,Lemland Nyhamn
66.77278,23.96303,2023-12-30 17:00:00,-14.0,Pello kirkonkylä
63.6673,28.82927,2023-12-31 14:00:00,-11.5,Nurmes Valtimo
69.04853,27.757,2023-12-30 01:00:00,-19.9,Inari Seitalaassa
62.54601,29.66818,2023-12-29 06:00:00,-12.0,Liperi Tuiskavanluoto
62.65695,29.63608,2024-01-01 08:00:00,-20.8,Liperi Joensuu lentoasema
67.69168,24.85538,2023-12-31 17:00:00,-15.3,Kittilä lentoasema
60.17824,19.98686,2023-12-29 01:00:00,1.2,Jomala Jomalaby
62.92178,26.4247,2024-01-01 02:00:00,-18.4,Vesanto kirkonkylä
62.60179,29.72713,2023-12-30 21:00:00,-14.4,Joensuu Linnunlahti
64.2976,30.17061,2023-12-30 12:00:00,-9.5,Kuhmo Kalliojoki
60.27476,26.44759,2023-12-29 22:00:00,0.0,Loviisa Orrengrund
61.05754,28.20873,2023-12-31 13:00:00,-14.6,Lappeenranta Lepola
59.77363,22.94868,2023-12-29 15:00:00,3.2,Hanko Russarö
61.1982,28.47308,2024-01-01 07:00:00,-21.4,Lappeenranta Hiekkapakka
64.93698,25.37299,2023-12-31 03:00:00,-15.9,Oulu Oulunsalo Pellonpää
65.0064,25.39321,2023-12-30 18:00:00,-12.1,Oulu Vihreäsaari satama
64.93698,25.37299,2024-01-01 02:00:00,-25.3,Oulu Oulunsalo Pellonpää
59.82076,23.57309,2023-12-30 05:00:00,0.3,Raasepori Jussarö
63.83882,23.09715,2023-12-29 01:00:00,-4.8,Kokkola Santahaka
59.84383,23.24859,2023-12-30 15:00:00,-2.0,Hanko Tvärminne
68.16961,25.78316,2024-01-01 08:00:00,-16.0,Kittilä Pokka
60.7222,21.02681,2023-12-31 09:00:00,-10.2,Kustavi Isokari
68.41507,27.41323,2024-01-01 01:00:00,-11.9,Inari Saariselkä matkailukeskus
67.16226,29.17766,2023-12-31 17:00:00,-25.1,Salla Naruska
69.757,27.012,2024-01-01 09:00:00,-28.0,Utsjoki Kevo Kevojärvi
60.30098,19.13142,2023-12-30 18:00:00,-1.3,Hammarland Märket
60.20307,24.96131,2023-12-30 18:00:00,-6.0,Helsinki Kumpula
60.11584,20.29765,2023-12-30 09:00:00,-1.3,Lumparland Långnäs satama
62.41345,22.18372,2023-12-29 10:00:00,-2.7,Kauhajoki Kuja-Kokko
66.15344,24.9901,2023-12-28 22:00:00,-7.4,Tervola Loue
69.757,27.012,2023-12-30 10:00:00,-23.6,Utsjoki Kevo Kevojärvi
60.20382,25.62546,2023-12-30 14:00:00,-3.0,Porvoo Emäsalo
60.7222,21.02681,2023-12-30 04:00:00,-2.2,Kustavi Isokari
67.02191,27.21827,2023-12-31 14:00:00,-11.1,Pelkosenniemi Pyhätunturi
60.37392,23.11292,2024-01-01 07:00:00,-19.1,Salo Kärkkä
64.50144,26.42386,2023-12-31 16:00:00,-14.0,Vaala Pelso
62.54601,29.66818,2023-12-28 18:00:00,-7.6,Liperi Tuiskavanluoto
67.74858,29.61132,2023-12-30 13:00:00,-15.6,Salla Värriötunturi
68.41507,27.41323,2023-12-30 21:00:00,-14.9,Inari Saariselkä matkailukeskus
68.08422,27.18501,2023-12-30 09:00:00,-19.1,Sodankylä Vuotso
61.47893,21.7832,2023-12-30 23:00:00,-10.7,Pori rautatieasema
59.84383,23.24859,2024-01-01 08:00:00,-13.1,Hanko Tvärminne
60.3869,22.55183,2023-12-30 09:00:00,-2.1,Kaarina Yltöinen
65.0064,25.39321,2023-12-28 12:00:00,-4.7,Oulu Vihreäsaari satama
68.61336,27.4189,2023-12-29 06:00:00,-10.6,Inari Ivalo lentoasema
61.8923,27.88528,2023-12-29 20:00:00,-8.8,Juva Partala
65.67319,24.5152,2023-12-28 20:00:00,-5.9,Kemi Ajos
60.17123,22.75768,2023-12-31 13:00:00,-14.2,Kemiönsaari Kemiö
62.32221,27.90785,2023-12-30 01:00:00,-10.8,Varkaus Kosulanniemi
62.39758,25.67087,2024-01-01 05:00:00,-20.6,Jyväskylä lentoasema
62.93488,21.18485,2024-01-01 00:00:00,-16.8,Korsnäs Bredskäret
60.50872,24.65375,2023-12-30 21:00:00,-8.9,Nurmijärvi Röykkä
65.84733,24.17369,2023-12-28 21:00:00,-12.5,Tornio Torppi
65.0064,25.39321,2023-12-31 17:00:00,-14.4,Oulu Vihreäsaari satama
61.70448,25.50529,2024-01-01 04:00:00,-19.1,Luhanka Judinsalo
61.13658,21.51518,2023-12-31 23:00:00,-16.7,Rauma Pyynpää
62.55461,24.14239,2023-12-29 00:00:00,-5.0,Ähtäri Inha
66.16614,29.15177,2024-01-01 10:00:00,-17.4,Kuusamo Rukatunturi
69.04853,27.757,2023-12-30 10:00:00,-23.9,Inari Seitalaassa
62.32221,27.90785,2023-12-31 11:00:00,-11.7,Varkaus Kosulanniemi
68.478,28.30123,2023-12-28 16:00:00,-12.8,Inari Raja-Jooseppi
61.68751,27.20671,2023-12-28 21:00:00,-5.4,Mikkeli Lentoasema AWOS
67.36663,26.62901,2023-12-30 12:00:00,-17.5,Sodankylä Tähtelä
65.99763,29.22268,2023-12-29 08:00:00,-10.2,Kuusamo Välikangas
62.32221,27.90785,2023-12-31 10:00:00,-12.4,Varkaus Kosulanniemi
68.41507,27.41323,2023-12-31 11:00:00,-12.4,Inari Saariselkä matkailukeskus
61.05408,25.03844,2023-12-30 16:00:00,-7.8,Hämeenlinna Lammi Pappila
60.9992,24.49163,2023-12-28 23:00:00,-2.2,Hämeenlinna Katinen
63.44564,24.44422,2023-12-29 18:00:00,-8.9,Halsua Purola
67.98721,24.24301,2023-12-30 22:00:00,-17.0,Kittilä Kenttärova
61.1982,28.47308,2024-01-01 09:00:00,-20.0,Lappeenranta Hiekkapakka
61.20008,26.04967,2023-12-31 20:00:00,-18.4,Heinola Asemantaus
67.99996,24.24016,2023-12-30 14:00:00,-18.2,Kittilä Matorova
63.8409,27.22061,2023-12-28 23:00:00,-7.0,Vieremä Kaarakkala
65.57489,28.21766,2023-12-29 07:00:00,-8.4,Taivalkoski kirkonkylä
59.91982,24.35023,2023-12-31 16:00:00,-10.5,Kirkkonummi Mäkiluoto
60.11163,21.69828,2023-12-30 05:00:00,-0.4,Parainen Fagerholm
62.99842,27.80817,2023-12-31 06:00:00,-13.9,Siilinjärvi Kuopio lentoasema
63.37806,28.66166,2023-12-29 22:00:00,-11.8,Rautavaara Ylä-Luosta
61.68751,27.20671,2024-01-01 10:00:00,-19.3,Mikkeli Lentoasema AWOS
66.36999,29.31193,2023-12-31 07:00:00,-20.3,Kuusamo Kiutaköngäs
60.41875,24.39862,2023-12-30 07:00:00,-2.5,Vihti Maasoja
63.12033,23.04364,2024-01-01 02:00:00,-25.2,Kauhava lentokenttä
60.41875,24.39862,2024-01-01 09:00:00,-16.9,Vihti Maasoja
64.33073,23.44627,2023-12-31 05:00:00,-7.0,Kalajoki Ulkokalla
66.36999,29.31193,2023-12-31 20:00:00,-31.2,Kuusamo Kiutaköngäs
60.12735,19.90038,2023-12-31 01:00:00,-3.4,Jomala Maarianhamina lentoasema
65.0064,25.39321,2023-12-29 08:00:00,-6.0,Oulu Vihreäsaari satama
61.83864,22.46368,2023-12-28 14:00:00,-4.4,Kankaanpää Niinisalo lentokenttä
69.75637,27.00678,2023-12-31 02:00:00,-27.4,Utsjoki Kevo
65.99763,29.22268,2023-12-31 06:00:00,-9.1,Kuusamo Välikangas
66.32027,29.39967,2023-12-30 22:00:00,-12.5,Kuusamo Juuma
61.11454,24.32449,2023-12-30 03:00:00,-4.5,Hattula Lepaa
69.14089,27.26567,2023-12-31 04:00:00,-22.5,Inari Kaamanen
60.37538,26.95893,2023-12-28 16:00:00,0.0,Kotka Rankki
62.97839,20.74008,2023-12-31 21:00:00,-8.6,Maalahti Strömmingsbådan
62.18329,22.79983,2023-12-30 08:00:00,-8.2,Karvia Alkkia
63.83882,23.09715,2023-12-30 03:00:00,-13.1,Kokkola Santahaka
60.20307,24.96131,2023-12-28 14:00:00,-0.1,Helsinki Kumpula
62.39758,25.67087,2023-12-31 13:00:00,-17.1,Jyväskylä lentoasema
64.68421,25.08919,2024-01-01 00:00:00,-22.2,Siikajoki Ruukki
59.91982,24.35023,2023-12-31 00:00:00,-7.7,Kirkkonummi Mäkiluoto
60.25299,25.04549,2023-12-29 01:00:00,0.1,Helsinki Malmi lentokenttä
62.33382,21.19081,2023-12-29 08:00:00,-1.8,Kaskinen Sälgrund
61.11454,24.32449,2023-12-30 20:00:00,-10.3,Hattula Lepaa
68.84928,28.29911,2023-12-29 10:00:00,-9.7,Inari Nellim
60.20307,24.96131,2023-12-31 10:00:00,-13.5,Helsinki Kumpula
60.37538,26.95893,2023-12-28 13:00:00,-1.5,Kotka Rankki
59.91982,24.35023,2023-12-29 09:00:00,1.6,Kirkkonummi Mäkiluoto
63.32108,30.04578,2023-12-30 11:00:00,-18.3,Lieksa Lampela
60.17824,19.98686,2023-12-29 11:00:00,1.2,Jomala Jomalaby
68.43399,27.44515,2023-12-29 14:00:00,-11.1,Inari Saariselkä Kaunispää
60.48595,26.59209,2023-12-29 10:00:00,-2.7,Pyhtää lentokenttä
61.87942,26.09478,2023-12-29 04:00:00,-5.2,Joutsa Savenaho
60.97465,25.6202,2023-12-30 10:00:00,-5.5,Lahti Sopenkorpi
61.03879,28.56395,2023-12-30 08:00:00,-4.4,Lappeenranta Konnunsuo
60.17797,24.78743,2023-12-31 22:00:00,-15.0,Espoo Tapiola
59.98568,25.59879,2023-12-31 13:00:00,-8.4,Porvoo Kalbådagrund
63.73589,25.70573,2023-12-31 20:00:00,-24.6,Pyhäjärvi Ojakylä
61.1982,28.47308,2023-12-31 15:00:00,-12.9,Lappeenranta Hiekkapakka
66.52952,24.6496,2023-12-31 20:00:00,-24.4,Ylitornio Meltosjärvi
67.36663,26.62901,2023-12-31 18:00:00,-12.7,Sodankylä Tähtelä
59.77909,21.37479,2023-12-30 05:00:00,0.7,Parainen Utö
61.80186,29.31506,2023-12-29 06:00:00,-7.4,Savonlinna Punkaharju Laukansaari
62.54601,29.66818,2023-12-31 06:00:00,-16.2,Liperi Tuiskavanluoto
65.99763,29.22268,2024-01-01 03:00:00,-29.3,Kuusamo Välikangas
59.94898,24.92631,2023-12-30 12:00:00,-0.6,Helsinki Helsingin majakka
61.85551,24.80459,2023-12-30 18:00:00,-11.2,Jämsä Halli lentoasema
63.99618,28.05972,2023-12-28 21:00:00,-7.0,Sotkamo Tuhkakylä
60.64668,23.80559,2023-12-30 05:00:00,-3.4,Somero Salkola
60.97465,25.6202,2023-12-30 04:00:00,-4.4,Lahti Sopenkorpi
61.4194,23.62256,2023-12-31 09:00:00,-16.2,Pirkkala Tampere-Pirkkala lentoasema
62.33382,21.19081,2024-01-01 09:00:00,-16.4,Kaskinen Sälgrund
60.10512,24.97539,2023-12-28 17:00:00,0.1,Helsinki Harmaja
67.99746,24.20955,2023-12-29 03:00:00,-14.8,Kittilä Lompolonvuoma
67.97328,24.11559,2023-12-29 21:00:00,-12.5,Muonio Sammaltunturi
63.6673,28.82927,2024-01-01 10:00:00,-26.5,Nurmes Valtimo
60.46415,23.64976,2023-12-31 16:00:00,-16.9,Salo Kiikala lentokenttä
63.82133,24.16323,2023-12-31 13:00:00,-19.4,Toholampi Laitala
60.11584,20.29765,2023-12-29 17:00:00,0.4,Lumparland Långnäs satama
62.92178,26.4247,2023-12-30 02:00:00,-10.8,Vesanto kirkonkylä
60.51565,22.27916,2023-12-31 05:00:00,-14.0,Turku lentoasema
61.20008,26.04967,2023-12-29 19:00:00,-4.1,Heinola Asemantaus
60.27476,26.44759,2023-12-29 01:00:00,0.4,Loviisa Orrengrund
68.84928,28.29911,2023-12-31 07:00:00,-17.0,Inari Nellim
68.08422,27.18501,2023-12-31 13:00:00,-16.9,Sodankylä Vuotso
69.14089,27.26567,2023-12-29 21:00:00,-10.8,Inari Kaamanen
69.757,27.012,2023-12-31 09:00:00,-28.4,Utsjoki Kevo Kevojärvi
60.11584,20.29765,2023-12-31 09:00:00,-5.8,Lumparland Långnäs satama
67.98721,24.24301,2023-12-28 16:00:00,-18.8,Kittilä Kenttärova
67.99996,24.24016,2024-01-01 00:00:00,-13.1,Kittilä Matorova
59.86949,22.19343,2023-12-31 06:00:00,-9.9,Kemiönsaari Vänö
67.16226,29.17766,2023-12-31 22:00:00,-29.0,Salla Naruska
61.25294,22.34613,2023-12-30 19:00:00,-6.6,Kokemäki Tulkkila
69.04853,27.757,2023-12-29 07:00:00,-11.6,Inari Seitalaassa
67.95828,23.68438,2024-01-01 06:00:00,-25.7,Muonio Oustajärvi
59.91982,24.35023,2023-12-29 04:00:00,0.9,Kirkkonummi Mäkiluoto
64.66404,28.05673,2024-01-01 06:00:00,-20.3,Puolanka Paljakka
63.08225,25.85862,2023-12-31 20:00:00,-18.5,Viitasaari Haapaniemi
62.60179,29.72713,2023-12-30 03:00:00,-11.5,Joensuu Linnunlahti
59.95911,19.95374,2023-12-29 10:00:00,2.9,Lemland Nyhamn
62.39332,25.68862,2023-12-30 02:00:00,-10.5,Jyväskylä lentoasema AWOS
65.97717,26.36757,2024-01-01 00:00:00,-26.3,Ranua lentokenttä
60.41875,24.39862,2023-12-29 08:00:00,-0.3,Vihti Maasoja
61.46561,23.74678,2023-12-30 22:00:00,-12.2,Tampere Härmälä
66.15344,24.9901,2023-12-30 17:00:00,-11.0,Tervola Loue
61.63042,21.3762,2023-12-29 05:00:00,-1.3,Pori Tahkoluoto satama
63.14166,31.04454,2023-12-31 21:00:00,-15.4,Ilomantsi Pötsönvaara
59.84383,23.24859,2024-01-01 01:00:00,-12.1,Hanko Tvärminne
65.03975,24.56118,2023-12-28 17:00:00,-7.0,Hailuoto Marjaniemi
63.09871,21.63938,2023-12-30 08:00:00,-11.6,Vaasa Klemettilä
62.18329,22.79983,2023-12-31 10:00:00,-19.5,Karvia Alkkia
69.04853,27.757,2023-12-29 20:00:00,-10.4,Inari Seitalaassa
60.20867,25.1959,2023-12-31 23:00:00,-13.2,Helsinki Vuosaari satama
63.05858,21.7546,2023-12-31 21:00:00,-17.8,Vaasa lentoasema
60.62773,25.19342,2023-12-29 16:00:00,-3.2,Mäntsälä Hirvihaara
62.68571,22.84272,2023-12-29 20:00:00,-5.1,Ilmajoki Seinäjoki lentoasema
63.44564,24.44422,2023-12-28 18:00:00,-5.1,Halsua Purola
59.77909,21.37479,2023-12-30 02:00:00,1.0,Parainen Utö
60.20307,24.96131,2023-12-30 16:00:00,-5.3,Helsinki Kumpula
67.82147,27.74597,2023-12-31 03:00:00,-11.7,Sodankylä Lokka
67.95828,23.68438,2023-12-31 15:00:00,-20.4,Muonio Oustajärvi
65.03975,24.56118,2023-12-29 23:00:00,-11.3,Hailuoto Marjaniemi
61.14475,21.30273,2023-12-31 18:00:00,-13.2,Rauma Kylmäpihlaja
66.57283,25.84865,2023-12-29 09:00:00,-9.4,Rovaniemi lentoasema AWOS
65.03975,24.56118,2024-01-01 05:00:00,-19.9,Hailuoto Marjaniemi
61.80186,29.31506,2023-12-30 11:00:00,-12.2,Savonlinna Punkaharju Laukansaari
62.60179,29.72713,2023-12-31 08:00:00,-11.3,Joensuu Linnunlahti
61.47893,21.7832,2023-12-29 22:00:00,-2.7,Pori rautatieasema
62.68571,22.84272,2023-12-31 11:00:00,-21.8,Ilmajoki Seinäjoki lentoasema
60.37788,22.0964,2023-12-30 03:00:00,-1.2,Turku Rajakari
66.15344,24.9901,2023-12-28 20:00:00,-7.6,Tervola Loue
60.5272,27.67274,2023-12-31 12:00:00,-13.8,Virolahti Koivuniemi
61.94638,28.93238,2024-01-01 06:00:00,-19.0,Savonlinna lentoasema
60.62773,25.19342,2023-12-31 16:00:00,-16.9,Mäntsälä Hirvihaara
62.89256,27.63331,2023-12-28 16:00:00,-6.5,Kuopio Savilahti
61.13658,21.51518,2023-12-28 13:00:00,-2.4,Rauma Pyynpää
60.09136,19.9291,2023-12-28 20:00:00,1.9,Maarianhamina Länsisatama
61.85959,24.81483,2023-12-30 14:00:00,-8.7,Jämsä Halli Lentoasemantie
60.20382,25.62546,2023-12-28 12:00:00,0.5,Porvoo Emäsalo
60.89839,26.94882,2023-12-31 15:00:00,-15.1,Kouvola Utti lentoasema
62.89256,27.63331,2023-12-29 00:00:00,-6.1,Kuopio Savilahti
61.94638,28.93238,2024-01-01 01:00:00,-15.7,Savonlinna lentoasema
64.93698,25.37299,2023-12-30 09:00:00,-14.0,Oulu Oulunsalo Pellonpää
63.8409,27.22061,2024-01-01 00:00:00,-17.8,Vieremä Kaarakkala
65.99334,29.22715,2023-12-29 11:00:00,-10.5,Kuusamo lentoasema
60.50872,24.65375,2023-12-30 00:00:00,-3.3,Nurmijärvi Röykkä
63.44564,24.44422,2023-12-29 22:00:00,-11.4,Halsua Purola
60.9992,24.49163,2023-12-30 10:00:00,-5.2,Hämeenlinna Katinen
63.14343,27.31317,2023-12-30 03:00:00,-10.2,Kuopio Maaninka
61.14475,21.30273,2023-12-29 11:00:00,-0.1,Rauma Kylmäpihlaja
60.24446,24.04951,2023-12-31 09:00:00,-15.1,Lohja Porla
60.20307,24.96131,2023-12-30 09:00:00,-2.5,Helsinki Kumpula
61.83864,22.46368,2023-12-30 21:00:00,-12.3,Kankaanpää Niinisalo lentokenttä
66.77278,23.96303,2024-01-01 07:00:00,-30.5,Pello kirkonkylä
67.28296,28.1786,2023-12-31 04:00:00,-9.3,Savukoski kirkonkylä
60.25299,25.04549,2023-12-31 18:00:00,-15.9,Helsinki Malmi lentokenttä
60.20382,25.62546,2024-01-01 10:00:00,-15.1,Porvoo Emäsalo
65.99334,29.22715,2023-12-30 14:00:00,-10.7,Kuusamo lentoasema
61.47893,21.7832,2023-12-28 23:00:00,-2.1,Pori rautatieasema
61.20008,26.04967,2023-12-30 11:00:00,-6.9,Heinola Asemantaus
69.14089,27.26567,2023-12-31 17:00:00,-17.9,Inari Kaamanen
65.38508,24.09568,2023-12-29 20:00:00,-5.9,Kemi I majakka
59.84383,23.24859,2023-12-29 16:00:00,1.8,Hanko Tvärminne
66.32027,29.39967,2023-12-29 06:00:00,-9.3,Kuusamo Juuma
62.39758,25.67087,2023-12-29 00:00:00,-5.5,Jyväskylä lentoasema
60.50872,24.65375,2023-12-28 22:00:00,-1.9,Nurmijärvi Röykkä
61.46011,21.80839,2023-12-28 13:00:00,-2.7,Pori lentoasema
68.08422,27.18501,2023-12-31 02:00:00,-16.8,Sodankylä Vuotso
69.03905,20.81379,2023-12-31 04:00:00,-27.1,Enontekiö Kilpisjärvi kyläkeskus
60.32937,24.97274,2023-12-31 04:00:00,-15.0,Vantaa Helsinki-Vantaan lentoasema
67.74858,29.61132,2024-01-01 08:00:00,-16.5,Salla Värriötunturi
68.84928,28.29911,2023-12-29 12:00:00,-9.5,Inari Nellim
65.97717,26.36757,2023-12-29 19:00:00,-10.9,Ranua lentokenttä
63.8409,27.22061,2023-12-31 23:00:00,-16.5,Vieremä Kaarakkala
61.13658,21.51518,2023-12-29 14:00:00,-0.4,Rauma Pyynpää
61.0403,28.12916,2023-12-29 17:00:00,-3.8,Lappeenranta lentoasema
68.06284,24.03335,2023-12-30 02:00:00,-13.5,Muonio Laukukero
63.14166,31.04454,2024-01-01 02:00:00,-19.6,Ilomantsi Pötsönvaara
59.50454,20.34748,2023-12-30 15:00:00,-0.7,Kökar Bogskär
68.84928,28.29911,2024-01-01 02:00:00,-10.2,Inari Nellim
61.14475,21.30273,2023-12-30 17:00:00,-4.6,Rauma Kylmäpihlaja
65.38508,24.09568,2023-12-30 08:00:00,-8.2,Kemi I majakka
67.82147,27.74597,2023-12-30 05:00:00,-25.8,Sodankylä Lokka
62.92178,26.4247,2023-12-30 04:00:00,-10.1,Vesanto kirkonkylä
60.5272,27.67274,2023-12-31 10:00:00,-14.4,Virolahti Koivuniemi
68.16961,25.78316,2023-12-30 00:00:00,-16.6,Kittilä Pokka
63.37806,28.66166,2023-12-30 02:00:00,-13.6,Rautavaara Ylä-Luosta
66.52952,24.6496,2023-12-30 06:00:00,-14.7,Ylitornio Meltosjärvi
63.73589,25.70573,2023-12-30 08:00:00,-13.8,Pyhäjärvi Ojakylä
59.80864,22.91246,2023-12-30 00:00:00,1.8,Hanko Tulliniemi
62.79892,27.90495,2023-12-29 07:00:00,-12.2,Kuopio Ritoniemi
66.1716,29.13646,2023-12-30 13:00:00,-10.8,Kuusamo Ruka Talvijärvi
66.15344,24.9901,2023-12-30 05:00:00,-11.4,Tervola Loue
61.83864,22.46368,2023-12-31 10:00:00,-16.5,Kankaanpää Niinisalo lentokenttä
65.67319,24.5152,2024-01-01 03:00:00,-20.5,Kemi Ajos
59.77363,22.94868,2023-12-30 10:00:00,-0.3,Hanko Russarö
60.97465,25.6202,2023-12-29 23:00:00,-3.4,Lahti Sopenkorpi
63.05858,21.7546,2023-12-31 09:00:00,-22.5,Vaasa lentoasema
63.08225,25.85862,2023-12-30 23:00:00,-15.5,Viitasaari Haapaniemi
61.44467,29.46108,2023-12-30 09:00:00,-9.0,Parikkala Koitsanlahti
67.74858,29.61132,2023-12-28 22:00:00,-11.2,Salla Värriötunturi
63.23236,29.23397,2023-12-28 18:00:00,-9.1,Juuka Niemelä
66.57944,26.01094,2024-01-01 00:00:00,-30.4,Rovaniemi Apukka
68.90296,25.73646,2023-12-29 23:00:00,-12.3,Inari Angeli Lintupuoliselkä
63.6673,28.82927,2024-01-01 09:00:00,-26.2,Nurmes Valtimo
68.60301,23.57595,2023-12-29 10:00:00,-12.8,Enontekiö Näkkälä
60.09136,19.9291,2024-01-01 00:00:00,-5.6,Maarianhamina Länsisatama
60.37392,23.11292,2023-12-30 18:00:00,-5.1,Salo Kärkkä
61.94638,28.93238,2023-12-31 00:00:00,-13.7,Savonlinna lentoasema
64.61178,23.89674,2023-12-31 11:00:00,-6.9,Raahe Nahkiainen
64.99685,25.52233,2023-12-29 12:00:00,-6.7,Oulu Kaukovainio
60.17824,19.98686,2023-12-29 08:00:00,0.5,Jomala Jomalaby
64.66589,24.40695,2023-12-31 12:00:00,-10.4,Raahe Lapaluoto satama
67.36663,26.62901,2023-12-30 02:00:00,-21.6,Sodankylä Tähtelä
61.4194,23.62256,2024-01-01 02:00:00,-16.9,Pirkkala Tampere-Pirkkala lentoasema
61.84591,24.28696,2023-12-29 17:00:00,-4.6,Juupajoki Hyytiälä
67.97328,24.11559,2023-12-29 07:00:00,-10.3,Muonio Sammaltunturi
67.16226,29.17766,2023-12-30 18:00:00,-10.5,Salla Naruska
69.5825,28.89409,2023-12-28 21:00:00,-17.8,Inari Kirakkajärvi
63.44564,24.44422,2023-12-29 07:00:00,-5.8,Halsua Purola
60.45439,22.1787,2023-12-30 15:00:00,-4.6,Turku Artukainen
59.86949,22.19343,2023-12-31 20:00:00,-7.8,Kemiönsaari Vänö
60.59589,24.80297,2023-12-28 13:00:00,-3.9,Hyvinkää Hyvinkäänkylä
61.94638,28.93238,2023-12-31 01:00:00,-13.9,Savonlinna lentoasema
63.8409,27.22061,2023-12-28 21:00:00,-7.2,Vieremä Kaarakkala
66.15344,24.9901,2023-12-31 06:00:00,-16.0,Tervola Loue
64.21678,27.75194,2023-12-31 19:00:00,-14.9,Kajaani Petäisenniska
61.13658,21.51518,2023-12-28 20:00:00,-1.4,Rauma Pyynpää
62.93488,21.18485,2023-12-31 03:00:00,-16.6,Korsnäs Bredskäret
61.47893,21.7832,2023-12-30 07:00:00,-4.2,Pori rautatieasema
67.97328,24.11559,2023-12-30 14:00:00,-14.5,Muonio Sammaltunturi
60.37538,26.95893,2023-12-31 15:00:00,-12.2,Kotka Rankki
65.57489,28.21766,2023-12-28 19:00:00,-9.2,Taivalkoski kirkonkylä
66.36999,29.31193,2023-12-30 00:00:00,-22.3,Kuusamo Kiutaköngäs
63.83882,23.09715,2023-12-28 23:00:00,-4.6,Kokkola Santahaka
64.2829,27.67114,2023-12-29 07:00:00,-7.6,Kajaani lentoasema
61.44467,29.46108,2023-12-30 13:00:00,-10.6,Parikkala Koitsanlahti
63.75144,22.52282,2023-12-30 07:00:00,-10.3,Pietarsaari Kallan
59.93114,24.01408,2023-12-30 07:00:00,-0.5,Inkoo Bågaskär
62.65695,29.63608,2023-12-30 17:00:00,-13.4,Liperi Joensuu lentoasema
63.08225,25.85862,2023-12-28 23:00:00,-5.7,Viitasaari Haapaniemi
60.17123,22.75768,2023-12-31 22:00:00,-18.6,Kemiönsaari Kemiö
67.16226,29.17766,2023-12-29 13:00:00,-14.0,Salla Naruska
66.15344,24.9901,2023-12-30 14:00:00,-11.4,Tervola Loue
60.3869,22.55183,2023-12-28 19:00:00,-0.7,Kaarina Yltöinen
60.20307,24.96131,2023-12-31 20:00:00,-14.8,Helsinki Kumpula
60.48595,26.59209,2023-12-30 03:00:00,-2.9,Pyhtää lentokenttä
60.37538,26.95893,2023-12-28 11:00:00,-1.8,Kotka Rankki
60.81397,23.49825,2023-12-28 23:00:00,-1.7,Jokioinen Ilmala
60.6965,26.81106,2023-12-31 23:00:00,-15.4,Kouvola Anjala
60.11163,21.69828,2023-12-31 22:00:00,-10.1,Parainen Fagerholm
63.73589,25.70573,2023-12-29 17:00:00,-11.7,Pyhäjärvi Ojakylä
67.36663,26.62901,2023-12-29 05:00:00,-12.9,Sodankylä Tähtelä
69.5825,28.89409,2023-12-29 10:00:00,-12.0,Inari Kirakkajärvi
60.30373,25.54916,2023-12-30 05:00:00,-2.0,Porvoo Kilpilahti satama
59.93114,24.01408,2023-12-31 05:00:00,-11.3,Inkoo Bågaskär
68.3614,23.42755,2023-12-31 07:00:00,-26.7,Enontekiö lentoasema
60.46415,23.64976,2023-12-29 17:00:00,-1.8,Salo Kiikala lentokenttä
62.65695,29.63608,2023-12-29 20:00:00,-13.6,Liperi Joensuu lentoasema
63.99618,28.05972,2023-12-29 21:00:00,-11.5,Sotkamo Tuhkakylä
60.97465,25.6202,2023-12-31 01:00:00,-15.1,Lahti Sopenkorpi
60.59589,24.80297,2023-12-28 23:00:00,-1.7,Hyvinkää Hyvinkäänkylä
63.09871,21.63938,2023-12-31 05:00:00,-17.3,Vaasa Klemettilä
60.27476,26.44759,2023-12-29 14:00:00,0.1,Loviisa Orrengrund
61.46011,21.80839,2023-12-28 16:00:00,-2.4,Pori lentoasema
61.0403,28.12916,2023-12-29 09:00:00,-4.6,Lappeenranta lentoasema
64.66404,28.05673,2023-12-31 10:00:00,-10.9,Puolanka Paljakka
60.7222,21.02681,2023-12-29 19:00:00,-0.5,Kustavi Isokari
60.3869,22.55183,2023-12-28 18:00:00,-0.7,Kaarina Yltöinen
63.08225,25.85862,2023-12-29 00:00:00,-5.7,Viitasaari Haapaniemi
64.99685,25.52233,2023-12-29 06:00:00,-6.9,Oulu Kaukovainio
61.46011,21.80839,2023-12-30 15:00:00,-5.4,Pori lentoasema
60.81397,23.49825,2023-12-30 11:00:00,-4.9,Jokioinen Ilmala
66.1716,29.13646,2023-12-31 00:00:00,-14.7,Kuusamo Ruka Talvijärvi
60.25299,25.04549,2023-12-29 22:00:00,-1.3,Helsinki Malmi lentokenttä
64.93503,25.3392,2023-12-28 14:00:00,-5.5,Oulu lentoasema
60.17824,19.98686,2023-12-28 15:00:00,1.0,Jomala Jomalaby
69.04277,20.85091,2023-12-31 20:00:00,-16.1,Enontekiö Kilpisjärvi Saana
68.43399,27.44515,2023-12-30 19:00:00,-13.2,Inari Saariselkä Kaunispää
66.71556,27.15906,2023-12-31 06:00:00,-9.1,Kemijärvi lentokenttä
60.5272,27.67274,2023-12-29 21:00:00,-2.8,Virolahti Koivuniemi
61.20008,26.04967,2023-12-28 13:00:00,-4.1,Heinola Asemantaus
61.14475,21.30273,2023-12-31 14:00:00,-12.2,Rauma Kylmäpihlaja
62.39332,25.68862,2023-12-29 13:00:00,-5.7,Jyväskylä lentoasema AWOS
64.11197,28.33639,2023-12-31 14:00:00,-13.2,Sotkamo Kuolaniemi
63.95114,22.84537,2023-12-29 17:00:00,-5.3,Kokkola Tankar
62.33382,21.19081,2023-12-31 10:00:00,-14.6,Kaskinen Sälgrund
62.32783,23.54228,2023-12-29 09:00:00,-4.6,Virrat Äijänneva
59.94898,24.92631,2023-12-31 08:00:00,-10.3,Helsinki Helsingin majakka
61.63042,21.3762,2023-12-28 11:00:00,-0.6,Pori Tahkoluoto satama
61.25294,22.34613,2023-12-30 09:00:00,-5.1,Kokemäki Tulkkila
60.37538,26.95893,2023-12-30 14:00:00,-2.6,Kotka Rankki
59.99464,23.9956,2023-12-30 21:00:00,-5.2,Inkoo Jakobramsjö
62.23539,30.34662,2023-12-31 01:00:00,-18.3,Tohmajärvi Kemie
65.78944,24.58278,2023-12-30 08:00:00,-11.3,Kemi Kemi-Tornio lentoasema
60.64668,23.80559,2023-12-29 15:00:00,-2.2,Somero Salkola
68.43399,27.44515,2023-12-31 20:00:00,-10.7,Inari Saariselkä Kaunispää
61.14475,21.30273,2023-12-31 16:00:00,-13.1,Rauma Kylmäpihlaja
61.25294,22.34613,2023-12-28 22:00:00,-2.8,Kokemäki Tulkkila
62.93488,21.18485,2023-12-30 08:00:00,-11.7,Korsnäs Bredskäret
65.67319,24.5152,2023-12-30 10:00:00,-10.1,Kemi Ajos
64.14263,25.42335,2023-12-29 22:00:00,-13.3,Haapavesi Mustikkamäki
64.14263,25.42335,2023-12-31 20:00:00,-19.9,Haapavesi Mustikkamäki
62.41345,22.18372,2023-12-29 20:00:00,-4.1,Kauhajoki Kuja-Kokko
61.63042,21.3762,2023-12-29 23:00:00,-3.0,Pori Tahkoluoto satama
67.7687,29.21102,2023-12-31 19:00:00,-12.8,Savukoski Tulppio
62.99842,27.80817,2024-01-01 10:00:00,-20.6,Siilinjärvi Kuopio lentoasema
60.25823,20.74698,2023-12-31 19:00:00,-8.5,Kumlinge kirkonkylä
63.83882,23.09715,2023-12-28 11:00:00,-7.5,Kokkola Santahaka
65.97717,26.36757,2024-01-01 04:00:00,-25.3,Ranua lentokenttä
67.99996,24.24016,2023-12-31 11:00:00,-16.1,Kittilä Matorova
60.30098,19.13142,2023-12-31 16:00:00,-4.4,Hammarland Märket
60.50872,24.65375,2023-12-31 22:00:00,-16.6,Nurmijärvi Röykkä
59.80864,22.91246,2023-12-29 10:00:00,2.4,Hanko Tulliniemi
61.14475,21.30273,2023-12-28 18:00:00,-1.1,Rauma Kylmäpihlaja
60.32937,24.97274,2023-12-28 17:00:00,-2.0,Vantaa Helsinki-Vantaan lentoasema
60.6965,26.81106,2023-12-29 15:00:00,-3.2,Kouvola Anjala
68.41507,27.41323,2023-12-30 02:00:00,-21.1,Inari Saariselkä matkailukeskus
64.2976,30.17061,2023-12-31 01:00:00,-8.7,Kuhmo Kalliojoki
60.30098,19.13142,2023-12-29 02:00:00,-0.4,Hammarland Märket
61.20008,26.04967,2023-12-31 16:00:00,-14.3,Heinola Asemantaus
63.43508,21.06856,2023-12-31 10:00:00,-10.0,Mustasaari Valassaaret
61.85551,24.80459,2023-12-29 16:00:00,-4.8,Jämsä Halli lentoasema
63.14343,27.31317,2024-01-01 08:00:00,-27.0,Kuopio Maaninka
63.72655,23.14359,2023-12-31 11:00:00,-22.1,Kruunupyy Kokkola-Pietarsaari lentoasema
67.74858,29.61132,2023-12-30 10:00:00,-14.9,Salla Värriötunturi
67.02191,27.21827,2023-12-28 17:00:00,-11.7,Pelkosenniemi Pyhätunturi
66.56236,25.83814,2023-12-30 00:00:00,-12.7,Rovaniemi lentoasema
61.52242,28.18491,2023-12-30 22:00:00,-14.7,Puumala kirkonkylä
65.0064,25.39321,2023-12-29 02:00:00,-7.5,Oulu Vihreäsaari satama
63.32108,30.04578,2023-12-31 05:00:00,-10.3,Lieksa Lampela
67.95828,23.68438,2023-12-30 19:00:00,-24.7,Muonio Oustajärvi
62.54601,29.66818,2023-12-30 06:00:00,-15.2,Liperi Tuiskavanluoto
60.89839,26.94882,2024-01-01 02:00:00,-17.3,Kouvola Utti lentoasema
61.44467,29.46108,2024-01-01 09:00:00,-21.4,Parikkala Koitsanlahti
60.7222,21.02681,2023-12-30 10:00:00,-2.8,Kustavi Isokari
68.478,28.30123,2023-12-31 08:00:00,-15.6,Inari Raja-Jooseppi
62.51044,24.80764,2023-12-30 07:00:00,-10.6,Multia Karhila
60.17797,24.78743,2023-12-31 07:00:00,-14.4,Espoo Tapiola
59.77363,22.94868,2023-12-28 23:00:00,0.7,Hanko Russarö
68.478,28.30123,2023-12-30 22:00:00,-18.9,Inari Raja-Jooseppi
62.65695,29.63608,2023-12-28 14:00:00,-7.3,Liperi Joensuu lentoasema
60.62773,25.19342,2023-12-28 22:00:00,-2.0,Mäntsälä Hirvihaara
59.94898,24.92631,2023-12-30 13:00:00,-0.5,Helsinki Helsingin majakka
60.81397,23.49825,2023-12-29 22:00:00,-3.1,Jokioinen Ilmala
66.57283,25.84865,2023-12-31 22:00:00,-15.7,Rovaniemi lentoasema AWOS
64.50144,26.42386,2023-12-29 11:00:00,-8.1,Vaala Pelso
63.12033,23.04364,2023-12-29 16:00:00,-4.8,Kauhava lentokenttä
61.83864,22.46368,2024-01-01 09:00:00,-18.7,Kankaanpää Niinisalo lentokenttä
63.32108,30.04578,2023-12-28 13:00:00,-8.2,Lieksa Lampela
67.95828,23.68438,2023-12-30 01:00:00,-14.3,Muonio Oustajärvi
62.51044,24.80764,2023-12-31 15:00:00,-12.9,Multia Karhila
65.78944,24.58278,2023-12-28 21:00:00,-6.0,Kemi Kemi-Tornio lentoasema
60.62773,25.19342,2024-01-01 09:00:00,-21.0,Mäntsälä Hirvihaara
59.98568,25.59879,2023-12-31 05:00:00,-10.4,Porvoo Kalbådagrund
60.10121,25.19439,2024-01-01 08:00:00,-11.2,Sipoo Itätoukki
64.14263,25.42335,2023-12-31 19:00:00,-20.7,Haapavesi Mustikkamäki
64.68421,25.08919,2023-12-29 18:00:00,-12.1,Siikajoki Ruukki
60.37538,26.95893,2023-12-29 16:00:00,-0.6,Kotka Rankki
62.51044,24.80764,2023-12-30 18:00:00,-14.6,Multia Karhila
66.1716,29.13646,2023-12-29 02:00:00,-8.4,Kuusamo Ruka Talvijärvi
66.52952,24.6496,2024-01-01 09:00:00,-32.8,Ylitornio Meltosjärvi
62.99842,27.80817,2023-12-30 20:00:00,-13.1,Siilinjärvi Kuopio lentoasema
59.84383,23.24859,2023-12-29 03:00:00,0.9,Hanko Tvärminne
61.80186,29.31506,2023-12-29 01:00:00,-6.6,Savonlinna Punkaharju Laukansaari
69.07219,27.4925,2023-12-31 14:00:00,-17.8,Inari Väylä
68.478,28.30123,2023-12-31 00:00:00,-18.9,Inari Raja-Jooseppi
63.73589,25.70573,2023-12-29 09:00:00,-6.5,Pyhäjärvi Ojakylä
60.17523,24.94459,2023-12-29 14:00:00,0.5,Helsinki Kaisaniemi
65.99334,29.22715,2023-12-31 07:00:00,-11.2,Kuusamo lentoasema
60.5272,27.67274,2024-01-01 03:00:00,-16.5,Virolahti Koivuniemi
61.6886,27.20219,2023-12-30 11:00:00,-9.5,Mikkeli lentoasema
64.99685,25.52233,2023-12-30 22:00:00,-15.3,Oulu Kaukovainio
63.23236,29.23397,2023-12-29 20:00:00,-14.0,Juuka Niemelä
67.99996,24.24016,2023-12-31 15:00:00,-18.8,Kittilä Matorova
70.08203,27.8965,2023-12-31 10:00:00,-21.2,Utsjoki Nuorgam
64.66589,24.40695,2023-12-30 04:00:00,-13.9,Raahe Lapaluoto satama
63.8409,27.22061,2023-12-30 05:00:00,-14.3,Vieremä Kaarakkala
67.97328,24.11559,2023-12-28 14:00:00,-8.0,Muonio Sammaltunturi
60.48595,26.59209,2023-12-29 18:00:00,-2.7,Pyhtää lentokenttä
59.80864,22.91246,2023-12-31 17:00:00,-10.6,Hanko Tulliniemi
66.49832,25.7088,2023-12-31 17:00:00,-19.5,Rovaniemi rautatieasema
69.14089,27.26567,2023-12-31 23:00:00,-18.1,Inari Kaamanen
65.0064,25.39321,2023-12-30 22:00:00,-16.6,Oulu Vihreäsaari satama
60.37538,26.95893,2023-12-31 03:00:00,-12.5,Kotka Rankki
61.94638,28.93238,2023-12-30 01:00:00,-10.9,Savonlinna lentoasema
63.09871,21.63938,2023-12-29 14:00:00,-3.4,Vaasa Klemettilä
67.16226,29.17766,2023-12-29 09:00:00,-8.3,Salla Naruska
65.57489,28.21766,2023-12-31 10:00:00,-17.4,Taivalkoski kirkonkylä
62.32221,27.90785,2023-12-31 01:00:00,-15.6,Varkaus Kosulanniemi
63.75144,22.52282,2023-12-31 05:00:00,-9.3,Pietarsaari Kallan
62.76942,30.97467,2024-01-01 05:00:00,-21.8,Ilomantsi Mekrijärvi
60.62773,25.19342,2023-12-28 20:00:00,-2.2,Mäntsälä Hirvihaara
62.39758,25.67087,2023-12-28 13:00:00,-5.7,Jyväskylä lentoasema
60.39172,25.6073,2023-12-29 04:00:00,-0.4,Porvoo Harabacka
60.17123,22.75768,2023-12-30 08:00:00,-1.7,Kemiönsaari Kemiö
62.99842,27.80817,2024-01-01 02:00:00,-17.1,Siilinjärvi Kuopio lentoasema
65.03975,24.56118,2023-12-29 15:00:00,-9.4,Hailuoto Marjaniemi
59.77363,22.94868,2023-12-29 11:00:00,2.0,Hanko Russarö
63.08898,24.26084,2023-12-28 20:00:00,-5.7,Alajärvi Möksy
61.80186,29.31506,2023-12-30 21:00:00,-15.3,Savonlinna Punkaharju Laukansaari
63.44564,24.44422,2023-12-30 17:00:00,-15.7,Halsua Purola
68.60301,23.57595,2023-12-28 11:00:00,-22.0,Enontekiö Näkkälä
63.37806,28.66166,2024-01-01 07:00:00,-22.9,Rautavaara Ylä-Luosta
61.85959,24.81483,2023-12-29 01:00:00,-4.7,Jämsä Halli Lentoasemantie
67.82147,27.74597,2023-12-29 21:00:00,-17.4,Sodankylä Lokka
67.98721,24.24301,2023-12-30 16:00:00,-17.3,Kittilä Kenttärova
69.14089,27.26567,2023-12-30 13:00:00,-18.5,Inari Kaamanen
60.37538,26.95893,2023-12-29 22:00:00,-1.2,Kotka Rankki
60.39172,25.6073,2024-01-01 01:00:00,-18.1,Porvoo Harabacka
67.02191,27.21827,2023-12-31 22:00:00,-14.6,Pelkosenniemi Pyhätunturi
64.14263,25.42335,2023-12-29 15:00:00,-10.9,Haapavesi Mustikkamäki
61.85551,24.80459,2023-12-29 23:00:00,-5.7,Jämsä Halli lentoasema
67.95828,23.68438,2023-12-30 22:00:00,-20.2,Muonio Oustajärvi
60.24446,24.04951,2023-12-29 23:00:00,-1.6,Lohja Porla
61.6886,27.20219,2023-12-31 20:00:00,-19.1,Mikkeli lentoasema
60.50872,24.65375,2023-12-30 18:00:00,-6.9,Nurmijärvi Röykkä
60.20382,25.62546,2023-12-29 05:00:00,0.6,Porvoo Emäsalo
67.02191,27.21827,2023-12-29 19:00:00,-11.5,Pelkosenniemi Pyhätunturi
67.28296,28.1786,2023-12-29 02:00:00,-11.0,Savukoski kirkonkylä
61.52242,28.18491,2023-12-30 09:00:00,-8.8,Puumala kirkonkylä
67.69168,24.85538,2023-12-28 21:00:00,-16.6,Kittilä lentoasema
64.93503,25.3392,2023-12-31 14:00:00,-13.1,Oulu lentoasema
60.46415,23.64976,2023-12-30 06:00:00,-3.0,Salo Kiikala lentokenttä
62.92178,26.4247,2023-12-30 21:00:00,-17.2,Vesanto kirkonkylä
69.03905,20.81379,2023-12-31 05:00:00,-27.7,Enontekiö Kilpisjärvi kyläkeskus
63.12033,23.04364,2023-12-29 07:00:00,-4.3,Kauhava lentokenttä
59.82076,23.57309,2024-01-01 06:00:00,-9.4,Raasepori Jussarö
68.06284,24.03335,2023-12-29 22:00:00,-12.9,Muonio Laukukero
61.25294,22.34613,2023-12-31 18:00:00,-19.8,Kokemäki Tulkkila
60.20382,25.62546,2023-12-31 22:00:00,-13.7,Porvoo Emäsalo
66.32027,29.39967,2023-12-28 22:00:00,-10.8,Kuusamo Juuma
67.74858,29.61132,2023-12-29 16:00:00,-16.6,Salla Värriötunturi
59.94898,24.92631,2024-01-01 07:00:00,-9.1,Helsinki Helsingin majakka
67.99996,24.24016,2023-12-30 05:00:00,-15.6,Kittilä Matorova
62.99842,27.80817,2023-12-29 09:00:00,-13.7,Siilinjärvi Kuopio lentoasema
60.10121,25.19439,2024-01-01 05:00:00,-10.7,Sipoo Itätoukki
65.38508,24.09568,2024-01-01 03:00:00,-14.1,Kemi I majakka
60.48595,26.59209,2023-12-30 15:00:00,-5.7,Pyhtää lentokenttä
61.8923,27.88528,2023-12-31 05:00:00,-16.1,Juva Partala
66.8166,28.68829,2023-12-29 00:00:00,-9.7,Salla kirkonkylä
62.54601,29.66818,2023-12-29 20:00:00,-15.2,Liperi Tuiskavanluoto
68.16961,25.78316,2023-12-28 22:00:00,-13.0,Kittilä Pokka
67.74858,29.61132,2023-12-31 22:00:00,-15.6,Salla Värriötunturi
61.4194,23.62256,2023-12-31 18:00:00,-16.0,Pirkkala Tampere-Pirkkala lentoasema
61.46561,23.74678,2023-12-30 20:00:00,-9.8,Tampere Härmälä
61.70448,25.50529,2023-12-31 05:00:00,-15.3,Luhanka Judinsalo
68.08422,27.18501,2023-12-31 20:00:00,-11.0,Sodankylä Vuotso
61.63042,21.3762,2024-01-01 04:00:00,-15.6,Pori Tahkoluoto satama
68.60301,23.57595,2023-12-29 18:00:00,-13.5,Enontekiö Näkkälä
69.04277,20.85091,2023-12-31 17:00:00,-16.6,Enontekiö Kilpisjärvi Saana
60.6965,26.81106,2023-12-29 12:00:00,-3.6,Kouvola Anjala
62.68571,22.84272,2023-12-30 18:00:00,-13.6,Ilmajoki Seinäjoki lentoasema
60.25299,25.04549,2023-12-29 20:00:00,-0.9,Helsinki Malmi lentokenttä
64.93503,25.3392,2023-12-28 11:00:00,-5.0,Oulu lentoasema
61.85959,24.81483,2024-01-01 08:00:00,-22.8,Jämsä Halli Lentoasemantie
61.63042,21.3762,2023-12-31 00:00:00,-11.8,Pori Tahkoluoto satama
62.41345,22.18372,2023-12-31 20:00:00,-19.9,Kauhajoki Kuja-Kokko
67.98721,24.24301,2023-12-31 00:00:00,-17.2,Kittilä Kenttärova
68.43399,27.44515,2024-01-01 03:00:00,-12.8,Inari Saariselkä Kaunispää
67.99746,24.20955,2023-12-29 14:00:00,-13.7,Kittilä Lompolonvuoma
60.37538,26.95893,2023-12-28 22:00:00,0.2,Kotka Rankki
60.64668,23.80559,2023-12-28 11:00:00,-3.4,Somero Salkola
63.12033,23.04364,2023-12-31 00:00:00,-16.9,Kauhava lentokenttä
60.88909,26.92929,2024-01-01 07:00:00,-18.5,Kouvola Utti Lentoportintie
66.8166,28.68829,2023-12-31 06:00:00,-18.3,Salla kirkonkylä
61.25294,22.34613,2023-12-30 14:00:00,-5.8,Kokemäki Tulkkila
64.2976,30.17061,2024-01-01 08:00:00,-29.8,Kuhmo Kalliojoki
69.5825,28.89409,2023-12-31 09:00:00,-14.3,Inari Kirakkajärvi
59.80864,22.91246,2023-12-29 18:00:00,3.0,Hanko Tulliniemi
63.73589,25.70573,2024-01-01 06:00:00,-31.4,Pyhäjärvi Ojakylä
63.05858,21.7546,2023-12-28 14:00:00,-7.3,Vaasa lentoasema
66.52952,24.6496,2023-12-29 15:00:00,-10.3,Ylitornio Meltosjärvi
65.84733,24.17369,2023-12-30 23:00:00,-13.7,Tornio Torppi
60.17523,24.94459,2023-12-29 16:00:00,0.5,Helsinki Kaisaniemi
60.25823,20.74698,2023-12-30 03:00:00,-1.1,Kumlinge kirkonkylä
60.39172,25.6073,2023-12-29 00:00:00,-0.3,Porvoo Harabacka
66.56236,25.83814,2023-12-29 08:00:00,-8.6,Rovaniemi lentoasema
60.3869,22.55183,2023-12-30 23:00:00,-6.8,Kaarina Yltöinen
62.60179,29.72713,2023-12-28 23:00:00,-7.2,Joensuu Linnunlahti
65.99763,29.22268,2023-12-29 10:00:00,-11.0,Kuusamo Välikangas
64.93503,25.3392,2023-12-31 23:00:00,-23.0,Oulu lentoasema
63.12033,23.04364,2023-12-29 19:00:00,-5.3,Kauhava lentokenttä
61.47893,21.7832,2023-12-28 11:00:00,-2.8,Pori rautatieasema
61.0403,28.12916,2023-12-30 21:00:00,-14.2,Lappeenranta lentoasema
60.11584,20.29765,2023-12-30 19:00:00,-2.7,Lumparland Långnäs satama
61.85551,24.80459,2023-12-30 13:00:00,-8.4,Jämsä Halli lentoasema
59.82076,23.57309,2023-12-29 00:00:00,0.4,Raasepori Jussarö
62.55461,24.14239,2023-12-30 20:00:00,-16.9,Ähtäri Inha
64.93125,28.74672,2023-12-29 21:00:00,-11.4,Suomussalmi Pesiö
61.25294,22.34613,2023-12-31 12:00:00,-15.6,Kokemäki Tulkkila
62.32221,27.90785,2023-12-29 07:00:00,-7.2,Varkaus Kosulanniemi
68.84928,28.29911,2023-12-31 04:00:00,-16.8,Inari Nellim
60.20307,24.96131,2023-12-31 09:00:00,-14.3,Helsinki Kumpula
60.45439,22.1787,2023-12-31 01:00:00,-10.0,Turku Artukainen
60.20307,24.96131,2023-12-30 02:00:00,-1.7,Helsinki Kumpula
59.50454,20.34748,2023-12-31 13:00:00,-3.7,Kökar Bogskär
60.89839,26.94882,2023-12-30 07:00:00,-4.5,Kouvola Utti lentoasema
63.14166,31.04454,2023-12-31 11:00:00,-9.7,Ilomantsi Pötsönvaara
63.75144,22.52282,2023-12-30 02:00:00,-10.8,Pietarsaari Kallan
64.61178,23.89674,2023-12-29 18:00:00,-7.1,Raahe Nahkiainen
60.29128,24.56782,2023-12-30 06:00:00,-2.8,Espoo Nuuksio
59.77909,21.37479,2023-12-29 21:00:00,1.1,Parainen Utö
67.99746,24.20955,2024-01-01 03:00:00,-24.1,Kittilä Lompolonvuoma
62.68571,22.84272,2023-12-30 11:00:00,-10.3,Ilmajoki Seinäjoki lentoasema
60.12735,19.90038,2023-12-31 02:00:00,-3.3,Jomala Maarianhamina lentoasema
69.757,27.012,2023-12-31 06:00:00,-30.0,Utsjoki Kevo Kevojärvi
61.83864,22.46368,2023-12-29 12:00:00,-3.6,Kankaanpää Niinisalo lentokenttä
63.14343,27.31317,2023-12-30 19:00:00,-16.6,Kuopio Maaninka
60.89839,26.94882,2024-01-01 04:00:00,-17.4,Kouvola Utti lentoasema
63.14343,27.31317,2023-12-30 13:00:00,-15.7,Kuopio Maaninka
60.29128,24.56782,2023-12-28 13:00:00,-3.1,Espoo Nuuksio
61.47893,21.7832,2023-12-30 01:00:00,-3.4,Pori rautatieasema
62.93808,22.48878,2023-12-31 11:00:00,-21.6,Seinäjoki Pelmaa
62.41345,22.18372,2023-12-30 04:00:00,-6.5,Kauhajoki Kuja-Kokko
63.72655,23.14359,2023-12-28 17:00:00,-4.6,Kruunupyy Kokkola-Pietarsaari lentoasema
60.62773,25.19342,2023-12-29 15:00:00,-3.0,Mäntsälä Hirvihaara
61.80186,29.31506,2023-12-30 23:00:00,-14.7,Savonlinna Punkaharju Laukansaari
64.93125,28.74672,2023-12-29 09:00:00,-7.6,Suomussalmi Pesiö
61.13658,21.51518,2023-12-31 19:00:00,-16.5,Rauma Pyynpää
59.80864,22.91246,2023-12-30 16:00:00,-2.1,Hanko Tulliniemi
68.60301,23.57595,2023-12-31 03:00:00,-26.4,Enontekiö Näkkälä
59.84383,23.24859,2023-12-28 17:00:00,0.6,Hanko Tvärminne
65.03975,24.56118,2023-12-30 08:00:00,-12.7,Hailuoto Marjaniemi
64.93698,25.37299,2023-12-29 16:00:00,-9.7,Oulu Oulunsalo Pellonpää
61.87942,26.09478,2023-12-31 04:00:00,-18.7,Joutsa Savenaho
60.17797,24.78743,2023-12-31 23:00:00,-15.1,Espoo Tapiola
60.37392,23.11292,2024-01-01 00:00:00,-16.9,Salo Kärkkä
67.82147,27.74597,2023-12-28 17:00:00,-13.6,Sodankylä Lokka
67.82147,27.74597,2023-12-29 01:00:00,-11.4,Sodankylä Lokka
69.04853,27.757,2023-12-31 11:00:00,-17.8,Inari Seitalaassa
61.1982,28.47308,2023-12-30 14:00:00,-9.2,Lappeenranta Hiekkapakka
64.61178,23.89674,2023-12-31 15:00:00,-7.8,Raahe Nahkiainen
60.62773,25.19342,2024-01-01 06:00:00,-20.4,Mäntsälä Hirvihaara
61.26521,25.52021,2023-12-30 11:00:00,-6.6,Asikkala Pulkkilanharju
62.89256,27.63331,2023-12-29 07:00:00,-9.6,Kuopio Savilahti
60.5272,27.67274,2023-12-29 05:00:00,-3.3,Virolahti Koivuniemi
59.94898,24.92631,2023-12-29 08:00:00,0.7,Helsinki Helsingin majakka
60.27476,26.44759,2023-12-29 06:00:00,0.3,Loviisa Orrengrund
65.84733,24.17369,2023-12-28 12:00:00,-16.5,Tornio Torppi
67.7687,29.21102,2023-12-28 20:00:00,-12.4,Savukoski Tulppio
61.20008,26.04967,2023-12-30 08:00:00,-6.3,Heinola Asemantaus
63.08898,24.26084,2023-12-28 23:00:00,-7.4,Alajärvi Möksy
63.12033,23.04364,2024-01-01 08:00:00,-26.6,Kauhava lentokenttä
64.05029,24.72468,2023-12-29 18:00:00,-10.9,Ylivieska lentokenttä
60.10512,24.97539,2023-12-29 13:00:00,1.3,Helsinki Harmaja
62.41345,22.18372,2023-12-28 11:00:00,-4.4,Kauhajoki Kuja-Kokko
60.11163,21.69828,2023-12-29 02:00:00,0.9,Parainen Fagerholm
68.60301,23.57595,2023-12-30 16:00:00,-26.9,Enontekiö Näkkälä
69.75637,27.00678,2023-12-30 01:00:00,-14.6,Utsjoki Kevo
64.68421,25.08919,2023-12-31 07:00:00,-22.0,Siikajoki Ruukki
65.99334,29.22715,2023-12-31 03:00:00,-10.5,Kuusamo lentoasema
68.41507,27.41323,2023-12-30 16:00:00,-16.7,Inari Saariselkä matkailukeskus
66.57283,25.84865,2023-12-28 16:00:00,-8.6,Rovaniemi lentoasema AWOS
67.28296,28.1786,2024-01-01 02:00:00,-26.4,Savukoski kirkonkylä
66.77278,23.96303,2023-12-28 22:00:00,-18.0,Pello kirkonkylä
61.0403,28.12916,2023-12-29 04:00:00,-5.0,Lappeenranta lentoasema
64.14263,25.42335,2023-12-31 06:00:00,-16.6,Haapavesi Mustikkamäki
60.20867,25.1959,2023-12-30 09:00:00,-2.0,Helsinki Vuosaari satama
60.20307,24.96131,2024-01-01 10:00:00,-16.5,Helsinki Kumpula
59.94898,24.92631,2023-12-31 06:00:00,-10.5,Helsinki Helsingin majakka
65.99334,29.22715,2023-12-31 16:00:00,-15.7,Kuusamo lentoasema
60.50872,24.65375,2023-12-31 09:00:00,-16.0,Nurmijärvi Röykkä
61.05754,28.20873,2023-12-28 13:00:00,-5.4,Lappeenranta Lepola
65.84733,24.17369,2023-12-29 15:00:00,-7.5,Tornio Torppi
69.03905,20.81379,2024-01-01 08:00:00,-14.4,Enontekiö Kilpisjärvi kyläkeskus
62.92178,26.4247,2023-12-30 22:00:00,-17.1,Vesanto kirkonkylä
66.52952,24.6496,2024-01-01 06:00:00,-32.0,Ylitornio Meltosjärvi
65.67319,24.5152,2023-12-29 05:00:00,-8.0,Kemi Ajos
65.78944,24.58278,2023-12-29 21:00:00,-7.9,Kemi Kemi-Tornio lentoasema
63.08225,25.85862,2023-12-30 01:00:00,-11.3,Viitasaari Haapaniemi
67.99746,24.20955,2023-12-30 04:00:00,-18.9,Kittilä Lompolonvuoma
62.06302,28.56618,2023-12-28 15:00:00,-6.5,Rantasalmi Rukkasluoto
65.67319,24.5152,2023-12-30 13:00:00,-13.0,Kemi Ajos
63.37806,28.66166,2023-12-29 12:00:00,-11.4,Rautavaara Ylä-Luosta
68.43399,27.44515,2023-12-29 16:00:00,-11.3,Inari Saariselkä Kaunispää
66.32027,29.39967,2024-01-01 05:00:00,-22.7,Kuusamo Juuma
67.66924,24.92927,2023-12-29 06:00:00,-13.2,Kittilä Pakatti
60.17123,22.75768,2023-12-31 08:00:00,-15.4,Kemiönsaari Kemiö
67.97328,24.11559,2024-01-01 08:00:00,-17.7,Muonio Sammaltunturi
68.06284,24.03335,2023-12-29 08:00:00,-10.6,Muonio Laukukero
62.39332,25.68862,2023-12-31 11:00:00,-16.9,Jyväskylä lentoasema AWOS
61.20008,26.04967,2023-12-31 19:00:00,-16.6,Heinola Asemantaus
67.7687,29.21102,2023-12-30 16:00:00,-16.1,Savukoski Tulppio
61.68751,27.20671,2023-12-29 06:00:00,-5.3,Mikkeli Lentoasema AWOS
59.98568,25.59879,2024-01-01 10:00:00,-9.2,Porvoo Kalbådagrund
59.82076,23.57309,2023-12-30 01:00:00,1.0,Raasepori Jussarö
67.16226,29.17766,2023-12-28 16:00:00,-13.3,Salla Naruska
64.66589,24.40695,2023-12-29 10:00:00,-6.0,Raahe Lapaluoto satama
60.20307,24.96131,2023-12-31 22:00:00,-14.8,Helsinki Kumpula
63.09871,21.63938,2023-12-30 06:00:00,-12.1,Vaasa Klemettilä
68.06284,24.03335,2023-12-30 14:00:00,-14.5,Muonio Laukukero
67.36663,26.62901,2023-12-31 03:00:00,-14.3,Sodankylä Tähtelä
70.08203,27.8965,2023-12-30 02:00:00,-20.2,Utsjoki Nuorgam
68.41507,27.41323,2023-12-29 14:00:00,-10.6,Inari Saariselkä matkailukeskus
67.16226,29.17766,2024-01-01 03:00:00,-29.7,Salla Naruska
64.61178,23.89674,2023-12-29 16:00:00,-6.9,Raahe Nahkiainen
67.16226,29.17766,2023-12-29 08:00:00,-8.3,Salla Naruska
63.14166,31.04454,2023-12-31 12:00:00,-9.4,Ilomantsi Pötsönvaara
62.06302,28.56618,2023-12-30 01:00:00,-10.4,Rantasalmi Rukkasluoto
61.8923,27.88528,2023-12-30 21:00:00,-15.5,Juva Partala
61.20008,26.04967,2023-12-30 23:00:00,-15.3,Heinola Asemantaus
60.10512,24.97539,2023-12-31 15:00:00,-10.8,Helsinki Harmaja
60.81397,23.49825,2023-12-30 18:00:00,-7.2,Jokioinen Ilmala
66.52952,24.6496,2023-12-29 05:00:00,-12.6,Ylitornio Meltosjärvi
63.99618,28.05972,2023-12-28 11:00:00,-6.8,Sotkamo Tuhkakylä
60.09136,19.9291,2023-12-30 22:00:00,-2.6,Maarianhamina Länsisatama
60.37538,26.95893,2023-12-31 00:00:00,-11.0,Kotka Rankki
61.03879,28.56395,2023-12-29 02:00:00,-4.7,Lappeenranta Konnunsuo
61.51757,23.75388,2023-12-30 02:00:00,-5.1,Tampere Siilinkari
64.66404,28.05673,2023-12-29 10:00:00,-8.2,Puolanka Paljakka
60.17523,24.94459,2023-12-30 23:00:00,-8.8,Helsinki Kaisaniemi
61.26521,25.52021,2023-12-31 16:00:00,-16.2,Asikkala Pulkkilanharju
60.39172,25.6073,2023-12-28 14:00:00,-2.9,Porvoo Harabacka
59.82076,23.57309,2023-12-29 19:00:00,2.3,Raasepori Jussarö
62.89256,27.63331,2023-12-31 18:00:00,-18.4,Kuopio Savilahti
65.03975,24.56118,2023-12-31 00:00:00,-13.6,Hailuoto Marjaniemi
61.8923,27.88528,2023-12-30 14:00:00,-12.7,Juva Partala
69.757,27.012,2023-12-29 16:00:00,-10.3,Utsjoki Kevo Kevojärvi
66.32027,29.39967,2023-12-30 20:00:00,-10.8,Kuusamo Juuma
60.48595,26.59209,2023-12-30 16:00:00,-6.0,Pyhtää lentokenttä
60.37538,26.95893,2023-12-30 07:00:00,-1.8,Kotka Rankki
66.77278,23.96303,2023-12-30 16:00:00,-14.0,Pello kirkonkylä
61.8923,27.88528,2023-12-30 18:00:00,-15.6,Juva Partala
63.12033,23.04364,2024-01-01 10:00:00,-22.0,Kauhava lentokenttä
60.11584,20.29765,2023-12-29 09:00:00,1.3,Lumparland Långnäs satama
60.17824,19.98686,2023-12-29 00:00:00,1.1,Jomala Jomalaby
61.1982,28.47308,2024-01-01 10:00:00,-20.1,Lappeenranta Hiekkapakka
60.11584,20.29765,2023-12-31 16:00:00,-5.2,Lumparland Långnäs satama
60.09136,19.9291,2023-12-31 19:00:00,-9.0,Maarianhamina Länsisatama
60.17523,24.94459,2023-12-30 15:00:00,-4.2,Helsinki Kaisaniemi
59.95911,19.95374,2023-12-31 10:00:00,-5.1,Lemland Nyhamn
60.3869,22.55183,2023-12-28 12:00:00,-1.8,Kaarina Yltöinen
60.39172,25.6073,2023-12-31 21:00:00,-16.7,Porvoo Harabacka
61.83864,22.46368,2023-12-30 13:00:00,-7.0,Kankaanpää Niinisalo lentokenttä
67.74858,29.61132,2023-12-29 12:00:00,-14.1,Salla Värriötunturi
66.49832,25.7088,2023-12-30 05:00:00,-11.4,Rovaniemi rautatieasema
60.20867,25.1959,2024-01-01 01:00:00,-14.0,Helsinki Vuosaari satama
66.16614,29.15177,2023-12-29 23:00:00,-14.3,Kuusamo Rukatunturi
65.78944,24.58278,2023-12-29 17:00:00,-8.0,Kemi Kemi-Tornio lentoasema
59.77909,21.37479,2024-01-01 06:00:00,-5.3,Parainen Utö
59.84383,23.24859,2023-12-30 01:00:00,1.3,Hanko Tvärminne
60.46415,23.64976,2023-12-30 20:00:00,-7.1,Salo Kiikala lentokenttä
61.1982,28.47308,2024-01-01 01:00:00,-16.5,Lappeenranta Hiekkapakka
62.93488,21.18485,2023-12-30 21:00:00,-14.1,Korsnäs Bredskäret
60.17523,24.94459,2023-12-28 15:00:00,-0.1,Helsinki Kaisaniemi
59.86949,22.19343,2023-12-31 16:00:00,-9.8,Kemiönsaari Vänö
69.5825,28.89409,2023-12-30 18:00:00,-14.4,Inari Kirakkajärvi
68.16961,25.78316,2023-12-31 00:00:00,-23.5,Kittilä Pokka
63.12033,23.04364,2023-12-30 20:00:00,-17.7,Kauhava lentokenttä
62.68571,22.84272,2024-01-01 09:00:00,-27.8,Ilmajoki Seinäjoki lentoasema
60.20867,25.1959,2023-12-29 16:00:00,0.5,Helsinki Vuosaari satama
64.99685,25.52233,2023-12-28 22:00:00,-6.7,Oulu Kaukovainio
62.32783,23.54228,2024-01-01 00:00:00,-25.7,Virrat Äijänneva
63.14166,31.04454,2023-12-28 19:00:00,-8.7,Ilomantsi Pötsönvaara
63.14343,27.31317,2023-12-28 11:00:00,-6.6,Kuopio Maaninka
62.93808,22.48878,2023-12-30 12:00:00,-8.3,Seinäjoki Pelmaa
69.04277,20.85091,2024-01-01 09:00:00,-15.8,Enontekiö Kilpisjärvi Saana
69.04853,27.757,2024-01-01 07:00:00,-12.8,Inari Seitalaassa
68.90296,25.73646,2023-12-29 13:00:00,-10.8,Inari Angeli Lintupuoliselkä
60.32937,24.97274,2023-12-31 01:00:00,-13.8,Vantaa Helsinki-Vantaan lentoasema
60.5272,27.67274,2023-12-29 16:00:00,-2.7,Virolahti Koivuniemi
67.82147,27.74597,2024-01-01 04:00:00,-14.4,Sodankylä Lokka
60.32937,24.97274,2024-01-01 09:00:00,-17.0,Vantaa Helsinki-Vantaan lentoasema
64.11197,28.33639,2023-12-31 19:00:00,-16.6,Sotkamo Kuolaniemi
67.99746,24.20955,2023-12-31 13:00:00,-20.2,Kittilä Lompolonvuoma
64.93125,28.74672,2023-12-30 20:00:00,-9.8,Suomussalmi Pesiö
63.44564,24.44422,2023-12-30 14:00:00,-15.1,Halsua Purola
69.5825,28.89409,2023-12-31 06:00:00,-15.0,Inari Kirakkajärvi
67.99996,24.24016,2023-12-31 04:00:00,-16.1,Kittilä Matorova
61.85551,24.80459,2023-12-30 14:00:00,-8.7,Jämsä Halli lentoasema
60.25823,20.74698,2023-12-29 19:00:00,0.8,Kumlinge kirkonkylä
61.83864,22.46368,2023-12-31 11:00:00,-16.3,Kankaanpää Niinisalo lentokenttä
61.52242,28.18491,2023-12-31 12:00:00,-12.2,Puumala kirkonkylä
66.16614,29.15177,2024-01-01 06:00:00,-18.4,Kuusamo Rukatunturi
59.77909,21.37479,2023-12-30 12:00:00,-0.3,Parainen Utö
61.14475,21.30273,2023-12-29 17:00:00,-1.6,Rauma Kylmäpihlaja
62.65695,29.63608,2023-12-28 20:00:00,-7.7,Liperi Joensuu lentoasema
64.93503,25.3392,2024-01-01 10:00:00,-24.4,Oulu lentoasema
67.66924,24.92927,2023-12-30 07:00:00,-20.5,Kittilä Pakatti
68.16961,25.78316,2023-12-28 23:00:00,-12.8,Kittilä Pokka
62.32783,23.54228,2023-12-28 18:00:00,-5.9,Virrat Äijänneva
60.24446,24.04951,2023-12-29 07:00:00,-0.1,Lohja Porla
60.10512,24.97539,2023-12-31 20:00:00,-11.2,Helsinki Harmaja
62.23539,30.34662,2023-12-29 06:00:00,-15.0,Tohmajärvi Kemie
60.20307,24.96131,2023-12-29 06:00:00,0.6,Helsinki Kumpula
62.79892,27.90495,2023-12-30 14:00:00,-14.8,Kuopio Ritoniemi
60.89839,26.94882,2023-12-31 14:00:00,-15.7,Kouvola Utti lentoasema
67.82147,27.74597,2023-12-31 16:00:00,-12.3,Sodankylä Lokka
61.03879,28.56395,2024-01-01 09:00:00,-20.3,Lappeenranta Konnunsuo
62.93808,22.48878,2023-12-30 23:00:00,-17.9,Seinäjoki Pelmaa
62.92178,26.4247,2023-12-29 09:00:00,-7.2,Vesanto kirkonkylä
61.26521,25.52021,2023-12-29 06:00:00,-3.7,Asikkala Pulkkilanharju
60.37538,26.95893,2023-12-31 05:00:00,-12.9,Kotka Rankki
62.60179,29.72713,2023-12-28 11:00:00,-6.8,Joensuu Linnunlahti
62.68571,22.84272,2023-12-31 13:00:00,-20.4,Ilmajoki Seinäjoki lentoasema
65.97717,26.36757,2023-12-31 10:00:00,-18.5,Ranua lentokenttä
61.70448,25.50529,2024-01-01 01:00:00,-16.8,Luhanka Judinsalo
59.95911,19.95374,2023-12-30 18:00:00,-2.1,Lemland Nyhamn
69.757,27.012,2023-12-30 18:00:00,-20.5,Utsjoki Kevo Kevojärvi
62.18329,22.79983,2023-12-29 09:00:00,-3.5,Karvia Alkkia
67.99746,24.20955,2023-12-31 19:00:00,-17.7,Kittilä Lompolonvuoma
67.99996,24.24016,2023-12-29 17:00:00,-12.8,Kittilä Matorova
62.76942,30.97467,2023-12-30 08:00:00,-14.7,Ilomantsi Mekrijärvi
65.40014,26.96311,2023-12-30 19:00:00,-15.8,Pudasjärvi lentokenttä
62.60179,29.72713,2023-12-31 02:00:00,-15.4,Joensuu Linnunlahti
60.50872,24.65375,2023-12-31 12:00:00,-14.7,Nurmijärvi Röykkä
61.44467,29.46108,2023-12-31 13:00:00,-13.9,Parikkala Koitsanlahti
64.66404,28.05673,2023-12-30 03:00:00,-12.2,Puolanka Paljakka
63.6673,28.82927,2023-12-31 15:00:00,-13.2,Nurmes Valtimo
67.02191,27.21827,2023-12-31 13:00:00,-11.1,Pelkosenniemi Pyhätunturi
65.03975,24.56118,2023-12-29 13:00:00,-8.3,Hailuoto Marjaniemi
61.05408,25.03844,2023-12-31 10:00:00,-18.1,Hämeenlinna Lammi Pappila
68.478,28.30123,2023-12-30 18:00:00,-19.5,Inari Raja-Jooseppi
59.77909,21.37479,2023-12-28 18:00:00,1.3,Parainen Utö
66.16614,29.15177,2023-12-30 05:00:00,-14.1,Kuusamo Rukatunturi
67.99746,24.20955,2023-12-31 10:00:00,-22.0,Kittilä Lompolonvuoma
